establishments_type,name,latitude,longitude,municipality_code,importance,name_reprocessed
hotel,Club Med (Hôtel),45.6785307,-1.1636353,17225,0.07855566918485676,Club Med 
hotel,Cabanes des Grands Cépages (Hôtel),44.0268588,4.8474913,84129,0.07841874692085168,Cabanes des Grands Cépages 
hotel,Pierre et Vacances (Hôtel),50.331541,1.5656771,80333,0.07799942246771428,Pierre et Vacances 
hotel,Pierre & Vacances (Hôtel),43.2859365,6.569696,83068,0.07770166100109502,Pierre & Vacances 
hotel,Le Domaine du Golf (Hôtel),43.5410505,3.7528519,34095,0.07754190660849607,Le Domaine du Golf 
hotel,Centre de Vacances CCAS MARINCA (Hôtel),41.8973814,8.8063768,2A130,0.07709292423472502,Centre de Vacances CCAS MARINCA 
hotel,Domaine de Marcilly (Hôtel),48.8316454,1.3284958,27391,0.0767337051416891,Domaine de Marcilly 
hotel,Château de Foscolombe (Hôtel),43.6389387,5.4679644,13080,0.0765747400099841,Château de Foscolombe 
hotel,TourisTra (Hôtel),45.690445,-1.1877967,17225,0.07633809181947264,TourisTra 
hotel,Belambra Clubs (Hôtel),43.7506246,6.0893236,04124,0.0761724629098682,Belambra Clubs 
hotel,Château Grattequina Hôtel,44.9236373,-0.5542653,33056,0.07550933248804298,Château Grattequina Hôtel
hotel,Hyatt Regency (Hôtel),48.9908855,2.5143268,95527,0.07540535630223602,Hyatt Regency 
hotel,Augustins de l'Assomption (Hôtel),45.7765154,4.7912323,69081,0.07476627820684523,Augustins de l'Assomption 
hotel,Les Lodges du Pal (Hôtel),46.5043378,3.6340434,03253,0.07475106028328556,Les Lodges du Pal 
hotel,Résidence Néméa Le Domaine de la Baie (Hôtel),48.0308702,-4.5367558,29003,0.07472062665996247,Résidence Néméa Le Domaine de la Baie 
hotel,Néméa (Hôtel),43.9586261,4.9426514,84119,0.07471084190695988,Néméa 
hotel,Le Riccoty (Hôtel),45.8397338,5.247429,01047,0.074680041719031,Le Riccoty 
hotel,Résidence Pierre et Vacances La Pinède (Hôtel),43.039343,6.149648,83069,0.07460697974494336,Résidence Pierre et Vacances La Pinède 
hotel,ClubMed (Hôtel),45.4556711,6.4453357,73024,0.07459707123330014,ClubMed 
hotel,Village vacances Kerbeuz (Hôtel),48.240214,-4.2266041,29289,0.07459491653132956,Village vacances Kerbeuz 
hotel,Pavillonaire (Hôtel),42.4470274,9.5382222,2B207,0.07457130863477407,Pavillonaire 
hotel,Hôtel Restaurant Château de Massillan,44.233074,4.7928422,84135,0.07456992002041775,Hôtel Restaurant Château de Massillan
hotel,Thermes de Préchacq-les-Bains (Hôtel),43.7656755,-0.9330632,40237,0.07439784871564235,Thermes de Préchacq-les-Bains 
hotel,Le Camp du drap d'Or (Hôtel),46.8859588,-0.9212456,85082,0.07435888410807058,Le Camp du drap d'Or 
hotel,Belambra Club (Hôtel),43.4958284,-1.5446251,64024,0.07435444137402221,Belambra Club 
hotel,Résidence Les Grands Rochers (Hôtel),46.5519599,-1.8084895,85194,0.07428458173234248,Résidence Les Grands Rochers 
hotel,Novotel Fontainebleau Ury (Hôtel),48.3497382,2.6059593,77477,0.07425166316546068,Novotel Fontainebleau Ury 
hotel,Disneyland Hotel,48.8701871,2.779688,77111,0.07424571372197591,Disneyland Hotel
hotel,Hôtel Le Mas des Herbes Blanches,43.9345711,5.2435506,84057,0.07421975251421423,Hôtel Le Mas des Herbes Blanches
hotel,Le Pal - Savana Réserve (Hôtel),46.5022856,3.629945,03253,0.07414851482560456,Le Pal - Savana Réserve 
hotel,domaine de La Tortinière (Hôtel),47.3008845,0.7098035,37266,0.07410999300027815,domaine de La Tortinière 
hotel,Hôtel Les lavandins,44.013785,5.5198766,84107,0.07405329181446275,Hôtel Les lavandins
hotel,Village Vacances (Hôtel),49.6106648,1.5330238,76276,0.07393803890816887,Village Vacances 
hotel,Village Vacances de Lamoura (Hôtel),46.4119528,5.9911174,39275,0.07391744809320629,Village Vacances de Lamoura 
hotel,Les Hauts De Beauval (Hôtel),47.2600843,1.3557663,41198,0.07391706970612974,Les Hauts De Beauval 
hotel,Bastide de la Félicité (Hôtel),43.5061303,5.4312984,13001,0.07389222932393189,Bastide de la Félicité 
hotel,Disney's Newport Bay Club (Hôtel),48.8661458,2.7894092,77132,0.07379796778444948,Disney's Newport Bay Club 
hotel,Les Îles de Clovis (Hôtel),46.8891031,-0.9225176,85082,0.07377112002720704,Les Îles de Clovis 
hotel,Westotel Nantes (Hôtel),47.2814795,-1.5507467,44035,0.07370177082646348,Westotel Nantes 
hotel,Appart'City Bordeaux Aéroport Saint Jean d'Illac (Hôtel),44.807949,-0.7675137,33422,0.07352853388610542,Appart'City Bordeaux Aéroport Saint Jean d'Illac 
hotel,Hôtel Domaine de Beaupré,47.9031586,7.2207339,68112,0.07351436120931983,Hôtel Domaine de Beaupré
hotel,Le Domaine du Mas de Pierre - Hôtel Resort & Spa - Relais & Châteaux,43.6828237,7.1229147,06128,0.07333774873011388,Le Domaine du Mas de Pierre - Hôtel Resort & Spa - Relais & Châteaux
hotel,"Club Belambra ""Les Chênes Verts"" (Hôtel)",43.4177076,6.8204199,83118,0.07330023872136354,"Club Belambra ""Les Chênes Verts"" "
hotel,Château de Noirieux (Hôtel),47.5760673,-0.4692586,49048,0.0732857601833204,Château de Noirieux 
hotel,Résidence Odalys Shangri-La (Hôtel),43.2560636,5.5515753,13119,0.07324555525536977,Résidence Odalys Shangri-La 
hotel,Manoir le Roure (Hôtel),44.5120617,4.7557978,26085,0.07322686134795155,Manoir le Roure 
hotel,Château de Collonges (Hôtel),45.1454711,4.9783543,26301,0.07321621857568485,Château de Collonges 
hotel,Madame Vacances (Hôtel),43.9489968,2.4932264,81303,0.07320261573147169,Madame Vacances 
hotel,Hôtel Le Mas des Grès,43.8828661,5.1007673,84062,0.07312355017043491,Hôtel Le Mas des Grès
hotel,Club Vacanciel Hameau d'Arnaga (Hôtel),43.3659556,-1.4177894,64160,0.07311330345050068,Club Vacanciel Hameau d'Arnaga 
hotel,Disney's Hotel New York,48.8704919,2.7881395,77111,0.07310215514806206,Disney's Hotel New York
hotel,Pierre et Vacances (Hôtel),49.3441435,0.075652,14220,0.07308879531231738,Pierre et Vacances 
hotel,La Charpinière (Hôtel),45.5887867,4.3104773,42222,0.07298123354320595,La Charpinière 
hotel,Hôtel Golf Club de Massane,43.64957,4.0021055,34022,0.0729643958791427,Hôtel Golf Club de Massane
hotel,Garden & city (Hôtel),43.4666575,5.606213,13087,0.0729459602530164,Garden & city 
hotel,Mercure Chantilly Resort & Conventions (Hôtel),49.2044653,2.4966582,60695,0.07287385678979635,Mercure Chantilly Resort & Conventions 
hotel,La Chenevière (Hôtel),49.3321752,-0.7551137,14172,0.07286822252031451,La Chenevière 
hotel,Aquaresort (Hôtel),44.1395701,0.3427312,47195,0.0728629646459672,Aquaresort 
hotel,Domaine de la Barollière (Hôtel),45.4680391,4.5557621,42271,0.07283087541944668,Domaine de la Barollière 
hotel,Village de gîtes de la Canourgue (Hôtel),44.4362553,3.2044699,48034,0.07276051362835154,Village de gîtes de la Canourgue 
hotel,Résidence Pierre et Vacances Le Hameau de la Pinède (Hôtel),43.0407534,6.146642,83069,0.07273307311774427,Résidence Pierre et Vacances Le Hameau de la Pinède 
hotel,Hostellerie du Val de Sault (Hôtel),44.1056395,5.4147987,84123,0.07272141363464776,Hostellerie du Val de Sault 
hotel,Les Marines de Moriani (Hôtel),42.3663179,9.5311694,2B313,0.07271198437797827,Les Marines de Moriani 
hotel,Novotel (Hôtel),47.8145726,1.9299609,45234,0.07270400728823595,Novotel 
hotel,Hôtel le Mas de la Sénancole,43.8867706,5.1790041,84050,0.07269792746109008,Hôtel le Mas de la Sénancole
hotel,Château Hôtel de Beaulieu,47.3628535,0.6606632,37122,0.07260389230483014,Château Hôtel de Beaulieu
hotel,Le Mas d'Hélène (Hôtel),44.2049583,5.0935577,84040,0.07256035668947484,Le Mas d'Hélène 
hotel,Best Western (Hôtel),43.9049406,4.8957074,84007,0.07254238387220556,Best Western 
hotel,Novotel (Hôtel),46.3658496,4.8408955,71270,0.07254183596513675,Novotel 
hotel,Accor|Novotel (Hôtel),43.985716,4.8881384,84129,0.07253657446411227,Accor|Novotel 
hotel,Hôtel Logis Le Céans,44.2956548,5.6467839,05135,0.07253067777287786,Hôtel Logis Le Céans
hotel,"Club Med ""Grand Massif"" (Hôtel)",46.0559288,6.7044443,74258,0.07244640401170707,"Club Med ""Grand Massif"" "
hotel,Hôtels de charme,44.1625738,5.0174264,84049,0.07241020112419785,Hôtels de charme
hotel,Cap West (Hôtel),47.3423365,-1.5412763,44201,0.07240271775211615,Cap West 
hotel,Domaine de la Blairie (Hôtel),47.3165484,-0.1497014,49261,0.07238111850509402,Domaine de la Blairie 
hotel,Clos masure (Hôtel),49.7725896,1.0462064,76075,0.07236927235408686,Clos masure 
hotel,Club Med (Hôtel),45.6300005,6.8566752,73176,0.07226884520996174,Club Med 
hotel,Le Château de Candie (Hôtel),45.6021335,5.9000221,73065,0.07223431121748139,Le Château de Candie 
hotel,Domaine de Capelongue (Hôtel),43.8219493,5.3181746,84020,0.0721499022808945,Domaine de Capelongue 
hotel,Hôtel d'Occitanie,43.181506,3.026047,11262,0.07212795767374555,Hôtel d'Occitanie
hotel,Hôtel du Mas de Cure Bourse,43.9014107,5.0345358,84054,0.0721135955365832,Hôtel du Mas de Cure Bourse
hotel,Disney's Hotel Santa Fe,48.8729849,2.7957347,77132,0.07210827285402446,Disney's Hotel Santa Fe
hotel,Sognu di Rena (Hôtel),42.3673747,9.5311729,2B313,0.07208337669035873,Sognu di Rena 
hotel,Résidence Le Birdie (Hôtel),45.7542862,6.246794,74135,0.07207763065540101,Résidence Le Birdie 
hotel,Hôtel Mercure,48.7271415,2.2658655,91377,0.07207573548755512,Hôtel Mercure
hotel,Club Med La Sarenne (Hôtel),45.089192,6.0821222,38191,0.07206234354112925,Club Med La Sarenne 
hotel,Ternelia (Hôtel),47.0832255,-1.2775764,44043,0.07202638748183698,Ternelia 
hotel,La Porte des Châteaux (Hôtel),47.8242057,1.6895,45203,0.07198262896245589,La Porte des Châteaux 
hotel,Domaine de la Grange Neuve (Hôtel),43.9658811,5.1175489,84101,0.07194259703094069,Domaine de la Grange Neuve 
hotel,Best Western (Hôtel),43.6949643,5.5255958,84089,0.07191678641241203,Best Western 
hotel,Holiday Inn (Hôtel),50.5167955,1.5968405,62826,0.07190622346943784,Holiday Inn 
hotel,Novotel (Hôtel),43.3175749,-0.4310363,64335,0.07189782640814124,Novotel 
hotel,Appart'City Cannes Mandelieu (Hôtel),43.5366036,6.9429353,06079,0.07185875808999584,Appart'City Cannes Mandelieu 
hotel,Belambra Club (Domaine de Pinsolle) (Hôtel),43.7743789,-1.4018806,40310,0.07184962030869331,Belambra Club 
hotel,Domaine de la Reposée (Hôtel),48.7696615,1.4005236,28098,0.0718138076782964,Domaine de la Reposée 
hotel,Hôtel Lodge La Petite Couronne,43.6389451,-0.6749162,40253,0.07174545437962172,Hôtel Lodge La Petite Couronne
hotel,Hôtel du Golf,45.5751627,6.7792535,73054,0.07174349366784037,Hôtel du Golf
hotel,Village Vacances (Hôtel),45.4692675,1.7408151,19118,0.07173344608539156,Village Vacances 
hotel,Mercure (Hôtel),46.3246826,-0.4533115,79191,0.07173092906205622,Mercure 
hotel,Club Vacanciel (Hôtel),43.4752883,-0.9290124,64499,0.0717008006778834,Club Vacanciel 
hotel,Alpaga - Hôtel & Chalets 5 étoiles - Megève,45.8528733,6.6006725,74173,0.07169683641855575,Alpaga - Hôtel & Chalets 5 étoiles - Megève
hotel,All Suites Appart Hôtel,44.6092272,-1.1182602,33529,0.07168767979998734,All Suites Appart Hôtel
hotel,Magic Circus Hotel,48.8720275,2.8081655,77268,0.071682877939085,Magic Circus Hotel
hotel,Hôtel Novotel Thalassa,48.6390313,-2.07445,35093,0.07163043309974604,Hôtel Novotel Thalassa
hotel,Explorers Hotel,48.875711,2.8082555,77268,0.0716056304284138,Explorers Hotel
hotel,La Citadelle (Hôtel),46.8880154,-0.9199829,85082,0.07159832147691582,La Citadelle 
hotel,Maison de Crillon (Hôtel),44.11605,5.1453036,84041,0.07159437827197751,Maison de Crillon 
hotel,La Hêtraie (Hôtel),49.6511698,0.9287069,76227,0.0715942488300795,La Hêtraie 
hotel,L'Abbaye (Hôtel),48.5244272,-2.2316893,22172,0.07155708644297738,L'Abbaye 
hotel,Résidence Hôtelière Les Châtaigniers,45.829962,6.1494534,74242,0.07154554229789331,Résidence Hôtelière Les Châtaigniers
hotel,Club Med (Hôtel),45.2991379,6.5784715,73257,0.07153368779547253,Club Med 
hotel,Relais de Bravone (Hôtel),42.1992385,9.5534987,2B143,0.07145689915120867,Relais de Bravone 
hotel,Aurélie & Sébastien (Hôtel),45.825222,6.2244042,74275,0.07145350320757468,Aurélie & Sébastien 
hotel,Bastide de Capelongue (Hôtel),43.8216595,5.3167185,84020,0.07144441975612012,Bastide de Capelongue 
hotel,Le Manoir de Gressy (Hôtel),48.9649133,2.673634,77214,0.07144337301244727,Le Manoir de Gressy 
hotel,Lou Caleù (Hôtel),43.856667,5.4768678,84112,0.07141781750552897,Lou Caleù 
hotel,La Balagne (Hôtel),42.5564919,8.7608058,2B050,0.07140712940958269,La Balagne 
hotel,Hôtel de la Baie,48.7910312,-3.0451706,22210,0.0713671333311304,Hôtel de la Baie
hotel,"Centre de Vacances ""Les Nivéoles"" (Hôtel)",45.6034175,6.0984637,73004,0.07136530444723509,"Centre de Vacances ""Les Nivéoles"" "
hotel,La Forestière (Hôtel),44.9924349,-1.1984301,33214,0.07135460782812961,La Forestière 
hotel,Bastide du Roy René (Hôtel),43.5114637,5.4676806,13001,0.07135043593361992,Bastide du Roy René 
hotel,Club Méditerrannée (Hôtel),45.5967147,6.8006083,73054,0.07135012229260052,Club Méditerrannée 
hotel,Hôtel Ariane,48.6966477,6.1321389,54304,0.0713485658534187,Hôtel Ariane
hotel,Abbaye des Capucins (Hôtel),44.0208045,1.35,82121,0.07134803999573536,Abbaye des Capucins 
hotel,La Bastide de Gordes (Hôtel),43.9112146,5.198741,84050,0.07133701565881936,La Bastide de Gordes 
hotel,Hôtel Le roy soleil,43.8436029,5.2027223,84073,0.0713049901666846,Hôtel Le roy soleil
hotel,Accor hotels,47.2540056,6.0212494,25056,0.07128802506472025,Accor hotels
hotel,Accor|Ibis Styles (Hôtel),43.9264936,4.8438027,84007,0.0712844555278927,Accor|Ibis Styles 
hotel,Hôtel Domain de Beaupré,47.9026397,7.2202847,68112,0.07128167024219653,Hôtel Domain de Beaupré
hotel,Park Suite (Hôtel),47.35478,5.0378843,21003,0.07126889764191661,Park Suite 
hotel,Novotel Aix-en-Provence Pont de l'Arc (Hôtel),43.511153,5.4570267,13001,0.0712476816561115,Novotel Aix-en-Provence Pont de l'Arc 
hotel,Ibis Aix-en-Provence (Hôtel),43.5119482,5.4656873,13001,0.07124522111770618,Ibis Aix-en-Provence 
hotel,Domaine des Seigneurs (Hôtel),45.0212248,5.0761322,26057,0.07123522494271985,Domaine des Seigneurs 
hotel,Les Hameaux de Lozère (Hôtel),44.8164025,3.1145471,48064,0.07122222850293199,Les Hameaux de Lozère 
hotel,Hôtel Domaine des Tilleuls,44.17384,5.1349278,84069,0.071182469530987,Hôtel Domaine des Tilleuls
hotel,Ibis Styles (Hôtel),48.6379926,6.1838369,54265,0.07117588261715793,Ibis Styles 
hotel,Crowne Plaza - CDG (Hôtel),49.0005565,2.5187405,95527,0.07117415565250551,Crowne Plaza - CDG 
hotel,Best Western Armor Park (Hôtel),48.4676192,-2.0592797,22339,0.07116954582979934,Best Western Armor Park 
hotel,Domaine de Bournereau (Hôtel),44.0229929,4.975548,84080,0.07116458063914485,Domaine de Bournereau 
hotel,Accor|Ibis (Hôtel),43.0573522,6.1481416,83069,0.07114998005193837,Accor|Ibis 
hotel,Le lodge (Hôtel),43.5794802,3.8970379,34129,0.07113346937913492,Le lodge 
hotel,Hotel du Parc - Manoir du Baron Blanc,45.7479178,6.2965133,74123,0.07113338425471832,Hotel du Parc - Manoir du Baron Blanc
hotel,Hôtel Marineland,43.6144784,7.126935,06004,0.07111498795212905,Hôtel Marineland
hotel,Hôtel Renaissance Paris Hippodrome de Saint-Cloud,48.8591298,2.1954259,92063,0.07109271259469774,Hôtel Renaissance Paris Hippodrome de Saint-Cloud
hotel,Barrière (Hôtel),49.3600387,0.0709638,14220,0.07105714363646823,Barrière 
hotel,Séjours & Affaires Roissy Village (Hôtel),49.0048444,2.5112042,95527,0.07105082673886819,Séjours & Affaires Roissy Village 
hotel,Hôtel Méridien Etoile,48.8795379,2.2855887,75056,0.07103534331032796,Hôtel Méridien Etoile
hotel,Hôtel Mercure Lille Aéroport,50.5839445,3.0934315,59343,0.07101995854762341,Hôtel Mercure Lille Aéroport
hotel,Le 1837 (Hôtel),43.955417,2.8857286,12208,0.07101525836786206,Le 1837 
hotel,Ibis Budget (Hôtel),43.5890168,3.8919186,34172,0.07100037624226825,Ibis Budget 
hotel,Disney's Hotel Cheyenne,48.874698,2.7919929,77132,0.07099215881406784,Disney's Hotel Cheyenne
hotel,Auberge de Cassagne & Spa (Hôtel),43.9606593,4.8749319,84092,0.07096807294146212,Auberge de Cassagne & Spa 
hotel,Hôtel Novotel Nancy,48.6955198,6.1254154,54304,0.07096280335919117,Hôtel Novotel Nancy
hotel,Campanille (Hôtel),49.018006,2.5866653,77291,0.07095745060269984,Campanille 
hotel,Inter-Hôtel,46.320707,5.1394841,01229,0.07093943688756088,Inter-Hôtel
hotel,Golden Tulip Amnéville (Hôtel),49.2442651,6.13243,57019,0.07091345909990351,Golden Tulip Amnéville 
hotel,Domaine du Lac (Hôtel),47.9199633,7.1963138,68112,0.07088641390701322,Domaine du Lac 
hotel,Le Petit Palais d'Aglaé (Hôtel),43.9245093,5.2048346,84050,0.07084681213442541,Le Petit Palais d'Aglaé 
hotel,Les Logis du Florianet (Hôtel),43.9049143,4.0010752,30210,0.07083513749811428,Les Logis du Florianet 
hotel,Novotel (Hôtel),48.8304592,2.6795216,77121,0.07076267354797583,Novotel 
hotel,Manoir Hôtel Rigourdaine,48.5476224,-1.9936468,22213,0.07075756323206922,Manoir Hôtel Rigourdaine
hotel,Grand Hôtel des Bains,48.6919154,-3.6452157,29133,0.07075397963610754,Grand Hôtel des Bains
hotel,Hôtel Blason de Provence,44.0378127,5.0105623,84080,0.07071292371627733,Hôtel Blason de Provence
hotel,La Sommellerie (Hôtel),44.0639088,4.7951422,84037,0.07070038217989617,La Sommellerie 
hotel,Hôtel Novotel Thalassa Le Touquet,50.5140465,1.577912,62826,0.07069981136533277,Hôtel Novotel Thalassa Le Touquet
hotel,Côté Sud (Hôtel),43.3940401,5.5756883,13073,0.07068338826332883,Côté Sud 
hotel,Hôtel Alta Peyra,44.7010761,6.8686056,05157,0.0706736700108169,Hôtel Alta Peyra
hotel,Résidence Odalys Domaine des Roches Jaunes (Hôtel),48.6901452,-3.8510775,29188,0.07065505829850083,Résidence Odalys Domaine des Roches Jaunes 
hotel,Dream Castle Hotel,48.8745845,2.807162,77268,0.07062471293068304,Dream Castle Hotel
hotel,Le Grand Large (Hôtel),47.3029427,-3.2306377,56009,0.07060046186169863,Le Grand Large 
hotel,Hôtel NH Lyon Airport,45.7191547,5.0777993,69299,0.07059547683718789,Hôtel NH Lyon Airport
hotel,Les Quais de Lutèce (Hôtel),49.1300412,2.5746707,60494,0.07059174966315893,Les Quais de Lutèce 
hotel,Château des Comtes de Challes (Hôtel),45.5540449,5.9874837,73064,0.07058721857875155,Château des Comtes de Challes 
hotel,B&B Hôtel à Disneyland® Paris,48.8769946,2.8099526,77268,0.07058401748339485,B&B Hôtel à Disneyland® Paris
hotel,Hôtel Crowne Plaza,50.6403472,3.0754479,59350,0.07058200541471156,Hôtel Crowne Plaza
hotel,Hôtel Carcarille,43.9094066,5.2212637,84050,0.07054240312605795,Hôtel Carcarille
hotel,Clos Saint-Pierre (Hôtel),42.211471,9.5351337,2B143,0.07054129401328627,Clos Saint-Pierre 
hotel,Pullman Bordeaux Lac (Hôtel),44.889244,-0.566276,33063,0.07053388799664202,Pullman Bordeaux Lac 
hotel,Hôtel La Bastide,44.2431372,5.0409402,84137,0.07053210767131309,Hôtel La Bastide
hotel,Côté Sud (Hôtel),43.3312048,5.4911005,13002,0.07052861433574134,Côté Sud 
hotel,Best Western PLUS Design & SPA Bassin D’Arcachon (Hôtel),44.61563,-1.1155895,33529,0.07050308878818864,Best Western PLUS Design & SPA Bassin D’Arcachon 
hotel,Le Logis du Château (Hôtel),44.2364856,5.0671651,84137,0.07050145980560653,Le Logis du Château 
hotel,Hôtel Mercure,48.7406269,2.362125,91479,0.07049856258695233,Hôtel Mercure
hotel,Hôtel Libera,49.1889736,-0.3003896,14167,0.07047094102749435,Hôtel Libera
hotel,Hôtel Paris Madrid **,43.9751312,-1.0543109,40152,0.0704641809912366,Hôtel Paris Madrid **
hotel,Hôtel Restaurant la Ferme,43.975626,4.8279065,84007,0.07046278514832327,Hôtel Restaurant la Ferme
hotel,Hôtel Campanille,44.7825898,-0.6526192,33318,0.07045653000446384,Hôtel Campanille
hotel,La Folie Douce (Hôtel),45.9254391,6.8672966,74056,0.07043763774552789,La Folie Douce 
hotel,La Bégude St. Pierre (Hôtel),43.9581661,4.5207855,30346,0.07043474481672635,La Bégude St. Pierre 
hotel,Resort Résidence (Hôtel),47.5717157,-3.08188,56034,0.07043221717086301,Resort Résidence 
hotel,Club Marmara Le Grand Bleu (Hôtel),42.0448886,8.7470657,2A048,0.07042946553294589,Club Marmara Le Grand Bleu 
hotel,Hôtel des Pins L'Esprit Jardin,44.1104778,5.1842301,84017,0.0704126294277766,Hôtel des Pins L'Esprit Jardin
hotel,Accord (Hôtel),49.034803,2.0717355,95127,0.07041126009331389,Accord 
hotel,Adonis Saint Florent (Hôtel),42.6729703,9.3078272,2B298,0.07041074650980565,Adonis Saint Florent 
hotel,Beachcomber (Hôtel),43.6203564,7.0598698,06018,0.07040173226177593,Beachcomber 
hotel,Comfort Hotel,46.1975202,6.2681439,74012,0.07039833920755306,Comfort Hotel
hotel,Hotel Novotel Paris Roissy CDG Convention,48.999044,2.517466,95527,0.07038994698593759,Hotel Novotel Paris Roissy CDG Convention
hotel,Best Western (Hôtel),43.7283733,-1.063074,40279,0.07036453337737518,Best Western 
hotel,Resid'Artel Val de Durance (Hôtel),43.6932381,5.7323765,13099,0.07036098068425546,Resid'Artel Val de Durance 
hotel,Maeva Cannes Verrerie (Hôtel),43.5481593,6.9790317,06029,0.07035822407928391,Maeva Cannes Verrerie 
hotel,Radisson Blu Golf Hotel,48.85494,2.808058,77268,0.07034005048855674,Radisson Blu Golf Hotel
hotel,Hôtel Le Relais de Farrou,44.3840451,2.0413423,12242,0.07033278910146681,Hôtel Le Relais de Farrou
hotel,Hôtel La bergerie,43.9262583,5.2571002,84057,0.07033189600016358,Hôtel La bergerie
hotel,Hilton Evian-les-Bains (Hôtel),46.40082,6.5977025,74119,0.07030413869112834,Hilton Evian-les-Bains 
hotel,Les Terrasses de Saumur (Hôtel),47.2625356,-0.1115207,49328,0.07030022655054921,Les Terrasses de Saumur 
hotel,Aiguille Grive Chalets Hôtel,45.5687512,6.7798481,73054,0.07029126549097253,Aiguille Grive Chalets Hôtel
hotel,Hôtel Plaza,46.6595815,0.3635938,86062,0.07027346895628216,Hôtel Plaza
hotel,Hôtel Barrière Le Westminster,50.522356,1.5915345,62826,0.07027135729744036,Hôtel Barrière Le Westminster
hotel,Gîte de Villaine (Hôtel),47.3215897,2.0297491,41256,0.07026623548480002,Gîte de Villaine 
hotel,Accor Hotels,47.090158,2.3941839,18033,0.07026619168430269,Accor Hotels
hotel,Centre de vacances VTF Le Bief Rouge (Hôtel),46.7741905,6.352144,25380,0.07025885603348658,Centre de vacances VTF Le Bief Rouge 
hotel,Château de Varenne (Hôtel),44.0256283,4.7923282,30312,0.07023910536846606,Château de Varenne 
hotel,Sure Hotel,45.806778,1.2986446,87065,0.07020539117171057,Sure Hotel
hotel,Golden Tulip (Hôtel),43.6283646,7.0428493,06152,0.07019912879969713,Golden Tulip 
hotel,Novotel (Hôtel),50.5841495,3.0896375,59343,0.07018671271022611,Novotel 
hotel,Bahia Hotel,43.6400289,7.1411765,06161,0.07014553928947144,Bahia Hotel
hotel,Mercure (Hôtel),44.9033384,4.8797705,26362,0.07013969196644429,Mercure 
hotel,Le Grand Large (Hôtel),43.4807534,-1.5650133,64122,0.07012134789231758,Le Grand Large 
hotel,Hostellerie du Château des Fines Roches (Hôtel),44.0501648,4.8490821,84037,0.07012064664145722,Hostellerie du Château des Fines Roches 
hotel,Hôtel Ibis,48.5560196,7.7453793,67482,0.0700793168454456,Hôtel Ibis
hotel,Chez Julien (Hôtel),48.4233925,7.1845956,67377,0.07001305147249488,Chez Julien 
hotel,Hôtel l'Anvia,44.2885725,4.7547768,84019,0.07000082557277458,Hôtel l'Anvia
hotel,Evian Resort (Hôtel),46.3967233,6.5937926,74119,0.06998964603314317,Evian Resort 
hotel,Accor|Ibis (Hôtel),43.9259461,4.8489945,84007,0.06998811759975752,Accor|Ibis 
hotel,B&B Hotel Paris 17 Batignolles,48.8944562,2.3120081,75056,0.06998501463338765,B&B Hotel Paris 17 Batignolles
hotel,La Maison des Ocres (Hôtel),43.9028175,5.2890587,84102,0.06996927844567959,La Maison des Ocres 
hotel,Résidence Paxton (Hôtel),48.8273875,2.707634,77181,0.06996361225704908,Résidence Paxton 
hotel,Hôtel Restaurant la Ferme de la Huppe,43.905526,5.2272553,84050,0.06996294688013319,Hôtel Restaurant la Ferme de la Huppe
hotel,Alpin D'Hôme (Hôtel),44.4879491,6.5543989,05098,0.06995841797769838,Alpin D'Hôme 
hotel,Résidence Kanzel (Hôtel),48.1556386,7.3208269,68023,0.0699401146228691,Résidence Kanzel 
hotel,Hôtel Riva-Bella,49.2895745,-0.2604905,14488,0.06993259212781429,Hôtel Riva-Bella
hotel,La Villa Romaine (Hôtel),44.8263187,1.273173,24082,0.06992477444423012,La Villa Romaine 
hotel,Château de Montvillargenne (Hôtel),49.1847258,2.4275414,60282,0.06991063493520466,Château de Montvillargenne 
hotel,Novotel (Hôtel),48.7324847,2.1695905,91534,0.06990080111493344,Novotel 
hotel,Château de l'Île (Hôtel),48.5447033,7.7139965,67365,0.06987866314193733,Château de l'Île 
hotel,Résidence Arboréa (Hôtel),48.6603782,6.1919605,54257,0.0698665951207387,Résidence Arboréa 
hotel,La Maison de la Prade (Hôtel),43.8179014,-1.3833088,40181,0.0698526909047696,La Maison de la Prade 
hotel,Kyriad (Hôtel),46.6683662,-1.4454268,85191,0.06984400013417923,Kyriad 
hotel,Hôtel Restaurant Mildiss,45.5185402,2.9379425,63038,0.06983630064813856,Hôtel Restaurant Mildiss
hotel,Hôtel Mercure Lille Métropole,50.6789579,3.1099222,59378,0.0698120970171913,Hôtel Mercure Lille Métropole
hotel,Hôtel Savoie Léman,46.3723009,6.4750837,74281,0.06980851498122656,Hôtel Savoie Léman
hotel,Ibis Styles (Hôtel),48.765859,2.0783653,78297,0.06979677900557163,Ibis Styles 
hotel,Lucien Barrière (Hôtel),48.1875321,7.3482651,68269,0.06978206861822028,Lucien Barrière 
hotel,Le Trécelin (Hôtel),48.6336867,-2.3252661,22201,0.06975717656843808,Le Trécelin 
hotel,Belambra Clubs (Hôtel),46.1919945,6.7772645,74191,0.06975663560515205,Belambra Clubs 
hotel,Villa Saint-Ange (Hôtel),43.5232926,5.4580212,13001,0.0697555472402463,Villa Saint-Ange 
hotel,Courtyard by Marriott (Hôtel),43.5994675,3.8966215,34172,0.06975009681446216,Courtyard by Marriott 
hotel,Le Monte Bianco (Hôtel),45.8875721,6.7084369,74236,0.06973127086460097,Le Monte Bianco 
hotel,Accor (Hôtel),47.2840655,-1.454288,44026,0.06972924168080118,Accor 
hotel,Radisson Blu Hotel,43.6845205,7.234907,06088,0.06972777980009116,Radisson Blu Hotel
hotel,Novotel (Hôtel),43.4267983,5.2581065,13117,0.06971116911357886,Novotel 
hotel,Koh-I Nor (Hôtel),45.2990182,6.5852965,73257,0.06970757036763317,Koh-I Nor 
hotel,Hôtel Acajou,42.5508903,3.0100735,66008,0.06970586836694354,Hôtel Acajou
hotel,8817 (Hôtel),48.7791549,2.2155695,78640,0.06968435907972634,8817 
hotel,Domaine de la Barraque (Hôtel),43.9832531,3.1107896,12220,0.06968245973135995,Domaine de la Barraque 
hotel,Mondhotel,48.8812385,2.599548,77108,0.06967359656002738,Mondhotel
hotel,Hôtel Citéa Avignon,43.9262725,4.7854397,84007,0.06967087302574007,Hôtel Citéa Avignon
hotel,Auberge Jérôme (Hôtel),45.572811,6.8269343,73054,0.0696675890695862,Auberge Jérôme 
hotel,Novotel (Hôtel),43.6137481,7.058696,06152,0.06965042162705276,Novotel 
hotel,La Grée des Landes (Hôtel),47.760261,-2.122947,56044,0.06963702480677028,La Grée des Landes 
hotel,Le Bois vert (Hôtel),46.863336,-1.0338441,85109,0.06962908465487629,Le Bois vert 
hotel,Le Fort de l'Océan (Hôtel),47.290544,-2.5448868,44049,0.06962565451881089,Le Fort de l'Océan 
hotel,Résidence Pierre & Vacances Cap Marine (Hôtel),47.793606,-4.2905815,29072,0.0696200794875799,Résidence Pierre & Vacances Cap Marine 
hotel,Les Cîmes du Léman (Hôtel),46.2657476,6.4646665,74140,0.06961965105205492,Les Cîmes du Léman 
hotel,Kyriad (Hôtel),43.4207642,6.0672619,83023,0.06961000937373396,Kyriad 
hotel,Hôtel des Planchettes,45.0323303,3.0908821,15187,0.06960926839083281,Hôtel des Planchettes
hotel,Best Hotel,48.282332,-0.626258,53147,0.06959760519607966,Best Hotel
hotel,Accor (Hôtel),43.4198659,6.7465557,83061,0.06959705310901923,Accor 
hotel,Le Relais de Boralde (Hôtel),44.519147,2.7820736,12096,0.06959287614819189,Le Relais de Boralde 
hotel,Première Classe (Hôtel),50.7071502,3.1615748,59599,0.06959256673318842,Première Classe 
hotel,Hôtel les Oliviers,43.8692618,5.1470953,84025,0.06959112239328388,Hôtel les Oliviers
hotel,Radisson Blu (Hôtel),43.6308502,1.3807737,31069,0.06958648691711097,Radisson Blu 
hotel,Accor|Mercure (Hôtel),43.9285426,4.7842219,84007,0.06958399089997132,Accor|Mercure 
hotel,La Villa Gallo-Romaine (Hôtel),46.8868662,-0.9239794,85082,0.06957520838972897,La Villa Gallo-Romaine 
hotel,Novotel Hauconcourt (Hôtel),49.2180055,6.1710975,57303,0.06957298801679518,Novotel Hauconcourt 
hotel,Club Méditerranéée (Hôtel),45.5094325,6.668116,73006,0.06956739499800842,Club Méditerranéée 
hotel,Alpen Lodge (Hôtel),45.6251443,6.8624073,73176,0.06955993922598226,Alpen Lodge 
hotel,Hôtel Thalasso Miramar la Cigale,47.5408115,-2.8903345,56005,0.06955852370553217,Hôtel Thalasso Miramar la Cigale
hotel,Première Classe (Hôtel),48.9884265,2.5126785,95527,0.06954798598112302,Première Classe 
hotel,Best Hotel Hagondange / Amnéville,49.249931,6.1577893,57283,0.06954090594477388,Best Hotel Hagondange / Amnéville
hotel,Mercure (Hôtel),46.3185641,4.8422164,71270,0.06953686751630728,Mercure 
hotel,Atria Novotel (Hôtel),47.641978,6.861732,90010,0.06953595711314908,Atria Novotel 
hotel,Première Classe (Hôtel),48.081132,-1.6105123,35055,0.06953254922538679,Première Classe 
hotel,Les Alpages de Chantel (Hôtel),45.5743531,6.784579,73054,0.06952809926760328,Les Alpages de Chantel 
hotel,Fasthotel,45.2237228,5.8177302,38249,0.06952367308270863,Fasthotel
hotel,Abbaye Royale (Hôtel),45.9438834,-0.5225011,17347,0.06951131066275557,Abbaye Royale 
hotel,Eco Nuit (Hôtel),47.3379954,-2.4223172,44069,0.06950737844984639,Eco Nuit 
hotel,Hôtel Première Classe CAEN NORD - Mémorial,49.2021551,-0.401377,14566,0.06950282234578938,Hôtel Première Classe CAEN NORD - Mémorial
hotel,Novotel (Hôtel),46.6699389,0.3621728,86062,0.06949981211961412,Novotel 
hotel,Novotel (Hôtel),47.2793205,5.0086145,21390,0.06947869537462376,Novotel 
hotel,AEC Vacances (Hôtel),46.078396,6.727369,74258,0.0694751843839348,AEC Vacances 
hotel,Hôtel Lou Valen,43.4382455,6.0480742,83143,0.06947508745499945,Hôtel Lou Valen
hotel,BTP Vacances (Hôtel),46.0276185,6.631073,74014,0.06945132987998351,BTP Vacances 
hotel,Hôtel Première Classe Clermont-Ferrand Nord,45.8031296,3.116449,63113,0.06944173661429168,Hôtel Première Classe Clermont-Ferrand Nord
hotel,Accor (Hôtel),44.1127377,4.8488956,84087,0.06943867311915689,Accor 
hotel,Mercure (Hôtel),49.007587,2.548712,95527,0.06942983491791471,Mercure 
hotel,Hôtel Mercure,43.6208279,7.0568107,06152,0.06942460431818527,Hôtel Mercure
hotel,Hôtel Première Classe Avignon Sud,43.9186329,4.8718536,84007,0.0694213648158984,Hôtel Première Classe Avignon Sud
hotel,Golden Tulip (Hôtel),47.1212669,-2.0845789,44131,0.06941484805988948,Golden Tulip 
hotel,Holiday Inn (Hôtel),43.6679389,7.2105331,06088,0.06938258472645173,Holiday Inn 
hotel,Hilton (Hôtel),48.5970002,7.7547885,67482,0.06938234823331599,Hilton 
hotel,Best Western Plus (Hôtel),43.1188586,5.8095755,83123,0.06935892707718322,Best Western Plus 
hotel,La Bergerie (Hôtel),49.2055325,6.2123055,57028,0.06935675117169561,La Bergerie 
hotel,Château de l'Île Blanche (Hôtel),48.6730746,-3.6417322,29133,0.06934923224551667,Château de l'Île Blanche 
hotel,Olivarius Apart'Hotel,50.6076482,3.1526444,59009,0.0693488777806553,Olivarius Apart'Hotel
hotel,Première Classe (Hôtel),44.7797588,-0.648915,33318,0.06933922369191271,Première Classe 
hotel,Novotel (Hôtel),48.8378844,2.5416074,93051,0.06933136803887444,Novotel 
hotel,Ibis Styles (Hôtel),47.3360899,0.6985436,37050,0.06932879018412916,Ibis Styles 
hotel,Logis Hôtel Le Parasol,46.2159077,-1.5262963,17019,0.06931860081189073,Logis Hôtel Le Parasol
hotel,Pierre et Vacances (Hôtel),43.7032179,7.3232194,06159,0.06930654295886537,Pierre et Vacances 
hotel,Radisson Blu (Hôtel),41.8648677,8.79199,2A008,0.0693044662775604,Radisson Blu 
hotel,Mercure Chamonix Les Bossons (Hôtel),45.8991118,6.8294211,74056,0.06930013349527331,Mercure Chamonix Les Bossons 
hotel,Le Grand Hôtel des Thermes,48.6582224,-1.9994424,35288,0.06929648958819232,Le Grand Hôtel des Thermes
hotel,Novotel Genève Aeroport France (Hôtel),46.2461739,6.0946463,01160,0.06929576481430412,Novotel Genève Aeroport France 
hotel,Concorde Lafayette (Hôtel),48.8802163,2.2842406,75056,0.0692913821075753,Concorde Lafayette 
hotel,Hôtel Restaurant Safari,44.047464,5.0306912,84031,0.06929003482496725,Hôtel Restaurant Safari
hotel,Kyriad (Hôtel),44.0801567,6.1949202,04070,0.06928832376709095,Kyriad 
hotel,Hôtel Mercure Orange,44.1371413,4.7875613,84087,0.06927497372049173,Hôtel Mercure Orange
hotel,Novotel Bordeaux Aéroport (Hôtel),44.834552,-0.6815425,33281,0.06926769238121229,Novotel Bordeaux Aéroport 
hotel,Okko (Hôtel),48.8790584,2.359107,75056,0.06926432477495849,Okko 
hotel,Quality Hotel & Suites Nantes Atlantique,47.2509025,-1.5080694,44109,0.06926108167478089,Quality Hotel & Suites Nantes Atlantique
hotel,Grand Hôtel des Therme,45.4522685,6.5683225,73057,0.06925713456909022,Grand Hôtel des Therme
hotel,Residhome Apparthotel Suites Paris Sénart,48.620412,2.540391,77251,0.06925510633997484,Residhome Apparthotel Suites Paris Sénart
hotel,Hôtel Kyriad Valence Nord,44.9588388,4.8882326,26058,0.06925368492943562,Hôtel Kyriad Valence Nord
hotel,Novotel (Hôtel),50.3366715,3.4552575,59515,0.06924518887972198,Novotel 
hotel,Ermitage (Hôtel),46.3944594,6.5959803,74200,0.06924088036384546,Ermitage 
hotel,Hôtel Sofitel Paris La Défense,48.8882061,2.2478962,92062,0.06923643255229107,Hôtel Sofitel Paris La Défense
hotel,Zenitude Groupe (Hôtel),45.8903696,6.1079116,74010,0.06921513811964164,Zenitude Groupe 
hotel,Hôtel Le Nouveau Monde,48.6534661,-2.0107693,35288,0.06921425321836486,Hôtel Le Nouveau Monde
hotel,Hôtel du Château,43.2070076,2.3669262,11069,0.06920832672383867,Hôtel du Château
hotel,Pierre & Vacances – Résidence Le Moulin des Cordeliers (Hôtel),47.1292032,0.9999672,37132,0.06920750327011813,Pierre & Vacances – Résidence Le Moulin des Cordeliers 
hotel,Résidence Bellevue Plage (Hôtel),43.4832618,-1.5620493,64122,0.06920343928215114,Résidence Bellevue Plage 
hotel,Le Mas del Pechs (Hôtel),44.8854885,1.2296244,24520,0.0692000420960012,Le Mas del Pechs 
hotel,Ibis budget Bayeux (Hôtel),49.253718,-0.6467734,14465,0.06919411028213533,Ibis budget Bayeux 
hotel,Île Oya Vendée Vacances (Hôtel),46.7242035,-2.346303,85113,0.06919346514629075,Île Oya Vendée Vacances 
hotel,Residhome Appart'Hôtel Metz Lorraine,49.1071999,6.172618,57463,0.06917856536921141,Residhome Appart'Hôtel Metz Lorraine
hotel,Hôtel Le Kandahar,45.4505445,6.9783384,73304,0.0691739210056733,Hôtel Le Kandahar
hotel,Villa Bellagio (Hôtel),47.6057659,1.3571282,41047,0.06916314132583376,Villa Bellagio 
hotel,Relais des Chartreux (Hôtel),48.6879028,2.2850503,91587,0.06915957492034475,Relais des Chartreux 
hotel,Avignon Grand Hôtel,43.9424628,4.8035207,84007,0.06915941449049737,Avignon Grand Hôtel
hotel,Le Petit Mas de Marie (Hôtel),43.7198429,5.5390102,84133,0.06915520465826634,Le Petit Mas de Marie 
hotel,Sofitel (Hôtel),41.8834859,8.7801836,2A130,0.06915512972973184,Sofitel 
hotel,Hôtel Royal Champagne,49.0907924,3.9768046,51119,0.06914930576588343,Hôtel Royal Champagne
hotel,Novotel (Hôtel),45.2723538,5.6297353,38565,0.0691445928767519,Novotel 
hotel,Best Western Plus (Hôtel),45.7377581,4.9679695,69271,0.06914182912456752,Best Western Plus 
hotel,Best Western Plus (Hôtel),49.0999924,6.2253378,57463,0.06914008900481104,Best Western Plus 
hotel,Cercle de la Marine (Hôtel),48.3902306,-4.4816025,29019,0.06913196003239862,Cercle de la Marine 
hotel,U Misincu (Hôtel),42.8742424,9.4720974,2B046,0.06913062321487794,U Misincu 
hotel,Grand Hôtel,46.5791942,0.3380074,86194,0.06913011878360241,Grand Hôtel
hotel,Le pré du Moulin (Hôtel),44.1896007,4.8464245,84127,0.06912787639042037,Le pré du Moulin 
hotel,Ibis Budget (Hôtel),43.8298105,5.0368407,84035,0.06912556699654065,Ibis Budget 
hotel,Novotel (Hôtel),44.890721,-0.566375,33063,0.06912491333885579,Novotel 
hotel,Novotel (Hôtel),43.168414,2.985618,11262,0.06912031781840912,Novotel 
hotel,Holiday Inn Coquelles (Hôtel),50.9265815,1.7989085,62239,0.06911848765626682,Holiday Inn Coquelles 
hotel,Les Pagodes de Beauval (Hôtel),47.250051,1.3613022,41239,0.06911302222134041,Les Pagodes de Beauval 
hotel,Hôtel Palladia,43.6055225,1.4002992,31555,0.06910859831806024,Hôtel Palladia
hotel,Husseren les Châteaux (Hôtel),48.035111,7.2761087,68150,0.06910297696893065,Husseren les Châteaux 
hotel,Marriott Rive Gauche (Hôtel),48.8316303,2.3400175,75056,0.06909753812559989,Marriott Rive Gauche 
hotel,Radisson Blu (Hôtel),45.5736903,6.8270766,73054,0.06909272429634793,Radisson Blu 
hotel,Fasthotel,45.6629776,6.3757664,73011,0.06908857744229373,Fasthotel
hotel,Gatsby (Hôtel),45.7329572,4.9638885,69271,0.06908668550140182,Gatsby 
hotel,Accor (Hôtel),47.4779153,-3.1050688,56186,0.06908151925656736,Accor 
hotel,FastHotel,48.6990986,2.5963515,77053,0.06906508062430963,FastHotel
hotel,Accor (Hôtel),44.859268,-0.569748,33063,0.06906480237400203,Accor 
hotel,Le Chêne Vert (Hôtel),48.533305,-2.7554605,22187,0.06905754853870219,Le Chêne Vert 
hotel,Hôtel Mercure,49.212475,-0.3567035,14327,0.06904807458949089,Hôtel Mercure
hotel,Quick Palace Vannes (Hôtel),47.6681971,-2.7217206,56260,0.06903770716539857,Quick Palace Vannes 
hotel,Le Ya'Tis (Hôtel),44.0604866,4.7128054,30278,0.06903750517919466,Le Ya'Tis 
hotel,Bâtiment X (Hôtel),48.7564208,2.1704355,91534,0.06902663824850011,Bâtiment X 
hotel,Eugénie (Hôtel),43.4697574,-1.5698807,64122,0.06902609085560724,Eugénie 
hotel,Hôtel Evergreen,48.8981865,2.2816344,92044,0.0690178976400017,Hôtel Evergreen
hotel,Pullman (Hôtel),48.8555019,2.2928355,75056,0.0690087392379671,Pullman 
hotel,Hôtel Mercure,43.5429256,6.9556564,06079,0.06900776331345998,Hôtel Mercure
hotel,Pullman (Hôtel),43.2685325,5.3687485,13055,0.0690067751430114,Pullman 
hotel,Barrière Le Majestic (Hôtel),43.5512222,7.0199585,06029,0.0689923374908469,Barrière Le Majestic 
hotel,Appart'hôtel Odalys Le Jardin des Lettres,47.3931412,0.6697247,37261,0.06899024579687177,Appart'hôtel Odalys Le Jardin des Lettres
hotel,Lagrange (Hôtel),45.253058,6.2567995,73116,0.06898817117737965,Lagrange 
hotel,Le Relais du Bois Saint-Georges (Hôtel),45.7504332,-0.6622209,17415,0.06898321220375724,Le Relais du Bois Saint-Georges 
hotel,Le Crêt (Hôtel),46.1870395,6.694842,74191,0.06898300592272537,Le Crêt 
hotel,Acotel Confort (Hôtel),43.9790231,4.8747211,84092,0.06897372654328317,Acotel Confort 
hotel,Brit Hotel,43.9260621,4.8513481,84007,0.06896859508746735,Brit Hotel
hotel,Mercure (Hôtel),48.7570391,2.3462348,94065,0.06895475741825093,Mercure 
hotel,Ibis Budget (Hôtel),43.6759953,5.4976231,84089,0.06893779299697014,Ibis Budget 
hotel,Accor|HotelF1,43.9846587,4.8881364,84129,0.06892174833248334,Accor|HotelF1
hotel,"Auberge du Jeu de Paume, Chantilly (Hôtel)",49.1946416,2.4797661,60141,0.06891585637600059,"Auberge du Jeu de Paume, Chantilly "
hotel,Hôtel Terre de Provence,43.9766139,4.8723433,84092,0.06891092892660597,Hôtel Terre de Provence
hotel,Hôtel Villa Elaia,44.2668342,5.1285543,84094,0.06890429786236615,Hôtel Villa Elaia
hotel,Radisson Blu (Hôtel),44.8647834,-0.5584368,33063,0.06890421495524349,Radisson Blu 
hotel,Millennium Hotel,49.005404,2.5204645,95527,0.06890364024109948,Millennium Hotel
hotel,Résidence Les Florans (Hôtel),44.128442,5.1758318,84017,0.06890182904505596,Résidence Les Florans 
hotel,Best Western (Hôtel),43.413095,6.7812385,83118,0.0688970990729118,Best Western 
hotel,Crowne Plaza Paris - Neuilly (Hôtel),48.8903443,2.2771243,92051,0.06889462685741148,Crowne Plaza Paris - Neuilly 
hotel,Najeti Golf hôtel de Valescure,43.4561572,6.789555,83118,0.06889123978576134,Najeti Golf hôtel de Valescure
hotel,Mas des Aigras (Hôtel),44.1601347,4.7845466,84087,0.0688855077424936,Mas des Aigras 
hotel,L'Artel (Hôtel),44.0574795,1.0981017,82033,0.068879815627472,L'Artel 
hotel,Sheraton (Hôtel),49.0039903,2.5709422,93073,0.06886793172173886,Sheraton 
hotel,Hôtel Novotel Clermont-Ferrand,45.7865107,3.1425436,63113,0.06886663577588828,Hôtel Novotel Clermont-Ferrand
hotel,Alezan (Hôtel),43.59186,1.4039183,31555,0.06886573423622594,Alezan 
hotel,Castel Mireio (Hôtel),44.2268129,4.9326609,84028,0.06885927847936453,Castel Mireio 
hotel,Pierre & Vacances (Hôtel),46.1919301,6.7788673,74191,0.06885868086141417,Pierre & Vacances 
hotel,Le Manoir Savoie (Hôtel),45.5735828,6.827992,73054,0.06885800272887377,Le Manoir Savoie 
hotel,Les Châtaigniers (Hôtel),44.7181596,4.6022984,07186,0.06883552476293732,Les Châtaigniers 
hotel,Castelbrac (Hôtel),48.6345339,-2.0493171,35093,0.06883079383353409,Castelbrac 
hotel,Otelinn (Hôtel),49.2008575,-0.389057,14118,0.06882373332524873,Otelinn 
hotel,Hôtel de la Poste,43.644049,6.884724,06095,0.06882225903257128,Hôtel de la Poste
hotel,Hôtel Mercure La Grande-Motte Port,43.5584891,4.0840053,34344,0.06882147050366666,Hôtel Mercure La Grande-Motte Port
hotel,Hôtel Ibis styles 3 étoiles,44.6163009,-1.0973304,33199,0.06882141750751392,Hôtel Ibis styles 3 étoiles
hotel,Auberge du Pont Romain (Hôtel),43.7805805,4.091301,30321,0.0688201253951748,Auberge du Pont Romain 
hotel,Hôtel Cantal Cottages,45.0303218,3.1399799,15188,0.06881537923079943,Hôtel Cantal Cottages
hotel,Accor|Ibis Budget (Hôtel),44.2901893,4.7516862,84019,0.0688152247390052,Accor|Ibis Budget 
hotel,"Hôtel Mercure Paris Porte de Versailles ""Expo""",48.8268134,2.2912035,92075,0.06881256840324404,"Hôtel Mercure Paris Porte de Versailles ""Expo"""
hotel,Residhotel Les Jardins De L’Amiraute,46.5025281,-1.797891,85194,0.068811801948325,Residhotel Les Jardins De L’Amiraute
hotel,Résidence Home Business Toulouse Airport (Hôtel),43.6396576,1.3764393,31069,0.06881130110801831,Résidence Home Business Toulouse Airport 
hotel,Mas du Langoustier (Hôtel),42.999515,6.1712374,83069,0.0688110212074165,Mas du Langoustier 
hotel,Novotel (Hôtel),48.7184138,2.2641686,91477,0.06881031823099595,Novotel 
hotel,Hôtel Lyon-Est,45.8195095,4.987781,01376,0.06880914708858944,Hôtel Lyon-Est
hotel,Yes hotel,43.9331281,4.8320208,84007,0.0688065674748651,Yes hotel
hotel,Kyriad (Hôtel),45.651321,5.1005497,38449,0.06880396930690354,Kyriad 
hotel,Adagio (Hôtel),46.2365005,6.0084055,01419,0.06880334313117573,Adagio 
hotel,Le Roma (Hôtel),45.657662,6.3767655,73011,0.06879442636346832,Le Roma 
hotel,Auberge de Jons (Hôtel),45.8103837,5.0894128,69280,0.06878988392781554,Auberge de Jons 
hotel,Hôtel Saint-Clair,43.5568849,4.0922923,34344,0.06878414226227943,Hôtel Saint-Clair
hotel,Brit Hotel,49.000843,1.1556234,27229,0.06878211792621372,Brit Hotel
hotel,Eza Vista (Hôtel),43.7305029,7.3632013,06059,0.06877904508249003,Eza Vista 
hotel,Formule 1 Évreux Sud (Hôtel),49.0014917,1.1552731,27229,0.06877660142821387,Formule 1 Évreux Sud 
hotel,Splendid Hôtel & Spa Nice,43.698643,7.2595955,06088,0.0687644594044623,Splendid Hôtel & Spa Nice
hotel,Balladins (Hôtel),49.8982932,1.0780355,76565,0.06875795294108311,Balladins 
hotel,Hôtel Restaurant Cristol,43.92677,4.8513086,84007,0.06875585445914352,Hôtel Restaurant Cristol
hotel,Neige et Plein-Air (Hôtel),46.398634,5.982764,39275,0.06874211392774437,Neige et Plein-Air 
hotel,Novotel (Hôtel),48.7542511,2.0752518,78356,0.06873261893490759,Novotel 
hotel,Hôtel AKENA Troyes,48.3078842,4.0233234,10081,0.0687284557692569,Hôtel AKENA Troyes
hotel,Accord (Hôtel),50.5264985,1.596087,62826,0.06872670488973744,Accord 
hotel,Deltour Hôtel Millau Éco,44.1176782,3.0714808,12145,0.06871420660712091,Deltour Hôtel Millau Éco
hotel,Hermitage (Hôtel),50.4648882,1.7635464,62588,0.0687118386903107,Hermitage 
hotel,Campanile Avignon Sud Hôtel,43.9256131,4.850837,84007,0.06870208007302847,Campanile Avignon Sud Hôtel
hotel,Hôtel du Val de Vienne,46.191484,0.6601454,86289,0.06869498843680584,Hôtel du Val de Vienne
hotel,A Flatta (Hôtel),42.4954408,8.8807869,2B049,0.06868971185478284,A Flatta 
hotel,Le Coucou (Hôtel),45.395313,6.5736003,73015,0.06868669925491583,Le Coucou 
hotel,Novotel Caen Côte de Nacre (Hôtel),49.2014785,-0.3597765,14118,0.06868241651610608,Novotel Caen Côte de Nacre 
hotel,Hôtel Les Ailes,45.5580602,5.9742958,73064,0.06867985692326292,Hôtel Les Ailes
hotel,Hôtel de l'Univers,47.3899943,0.6902479,37261,0.0686655951618382,Hôtel de l'Univers
hotel,Hôtel Méridien Montparnasse,48.8383839,2.3209048,75056,0.06866156003613776,Hôtel Méridien Montparnasse
hotel,Première Classe (Hôtel),44.8998613,4.8850627,26362,0.06866112003006021,Première Classe 
hotel,Hôtel la Garrigue,43.9932041,5.1509631,84143,0.068656935498599,Hôtel la Garrigue
hotel,Belambra (Hôtel),45.571636,6.8315686,73054,0.06865071884192893,Belambra 
hotel,Pierre et Vacances (Hôtel),46.0073753,6.6936109,74014,0.06864979179447989,Pierre et Vacances 
hotel,Best Western (Hôtel),49.0057425,2.521645,95527,0.06864735732381291,Best Western 
hotel,Novotel (Hôtel),43.6056648,1.3989792,31555,0.06864693166552108,Novotel 
hotel,Hôtel Le Chêne Vert,44.3055592,4.7509797,84019,0.0686295134828753,Hôtel Le Chêne Vert
hotel,Les Berges de la Monnerie (Hôtel),47.7025932,-0.0473772,72154,0.06862725147679727,Les Berges de la Monnerie 
hotel,Océania (Hôtel),47.985226,-4.1101035,29232,0.06862677695136868,Océania 
hotel,B&B Hôtel Avignon (1),43.9787179,4.8723859,84092,0.06862441548740081,B&B Hôtel Avignon 
hotel,accor (Hôtel),45.407959,6.6313002,73227,0.06861992525704785,accor 
hotel,Brit Hotel,49.2844338,4.0140794,51454,0.06861859895713146,Brit Hotel
hotel,Eklo (Hôtel),44.8444118,-0.5561242,33063,0.06861187317429775,Eklo 
hotel,Kyriad (Hôtel),43.5778762,3.8735327,34172,0.06860502047150113,Kyriad 
hotel,Belvédère Hotel,48.3629101,-4.5480252,29019,0.06860244386315413,Belvédère Hotel
hotel,Accorhotels,48.952932,2.4515591,93007,0.06860182179496963,Accorhotels
hotel,Hôtel Pullman Toulouse Airport,43.6266658,1.3822852,31069,0.0685986505497674,Hôtel Pullman Toulouse Airport
hotel,Pullman Cannes Mandelieu - Royal Casino (Hôtel),43.5300581,6.9483822,06079,0.0685983500448778,Pullman Cannes Mandelieu - Royal Casino 
hotel,Le Dauphiné Hôtel,45.0211291,5.0416772,26057,0.06859008273835282,Le Dauphiné Hôtel
hotel,Hôtel Heliopic,45.9176136,6.8700183,74056,0.06858641348174158,Hôtel Heliopic
hotel,La Bastide Saint-Christophe (Hôtel),43.6972812,6.9828781,06010,0.06857996957518664,La Bastide Saint-Christophe 
hotel,Appartéa Golf Side (Hôtel),43.6197964,7.074311,06018,0.06857628861182806,Appartéa Golf Side 
hotel,Relais 500 de Vienne (Hôtel),45.4602905,4.8250515,38107,0.06856726991848004,Relais 500 de Vienne 
hotel,Fourvière Hôtel,45.7586775,4.8166405,69123,0.06855922654079435,Fourvière Hôtel
hotel,Le Ruitor (Hôtel),45.5705685,6.776167,73054,0.06855726828425168,Le Ruitor 
hotel,Hôtel Mercure Strasbourg Sud,48.5339248,7.7015767,67365,0.06855048183986412,Hôtel Mercure Strasbourg Sud
hotel,Hôtel Terra Nova,45.5078177,6.6793403,73150,0.06854869195169602,Hôtel Terra Nova
hotel,Accor (Hôtel),45.7853803,3.1410122,63113,0.06854721117008988,Accor 
hotel,Lagrange City (Hôtel),45.7467673,4.8690293,69123,0.06854577449249119,Lagrange City 
hotel,La Bessannaise (Hôtel),45.328906,7.011453,73040,0.06853946072023749,La Bessannaise 
hotel,Etap Hotel,49.199065,-0.3976998,14566,0.06853554779116126,Etap Hotel
hotel,Hôtel Neiges de France,45.5507169,5.9837526,73064,0.06853475235818689,Hôtel Neiges de France
hotel,Le Château de Mazan (Hôtel),44.0558719,5.1269273,84072,0.068530984949911,Le Château de Mazan 
hotel,Grape Hospitality (Hôtel),49.2360398,4.0690493,51454,0.06853085065326978,Grape Hospitality 
hotel,Hôtel Novotel Atria,43.8354245,4.363801,30189,0.06852978394987203,Hôtel Novotel Atria
hotel,Le Clermotel (Hôtel),49.387839,2.390951,60007,0.06852833178268884,Le Clermotel 
hotel,Holiday Inn (Hôtel),43.638857,1.3770657,31069,0.06852755962730031,Holiday Inn 
hotel,La Verte Vallée (Hôtel),48.0405806,7.1425332,68226,0.06852661457361678,La Verte Vallée 
hotel,Balladins (Hôtel),47.0486439,3.1278102,58303,0.06852269981466724,Balladins 
hotel,Auberge La Bastide Bleue (Hôtel),44.2071201,5.0180542,84126,0.06850929044463289,Auberge La Bastide Bleue 
hotel,Royal Aubrac (Hôtel),44.6271625,2.985482,12214,0.06850343922262804,Royal Aubrac 
hotel,Hôtel Jeanne d'Arc,43.0942189,-0.0544733,65286,0.06849711075568955,Hôtel Jeanne d'Arc
hotel,Résidhome (Hôtel),48.9114104,2.1674088,78124,0.06849454563530374,Résidhome 
hotel,Novotel (Hôtel),48.616413,2.4242435,91228,0.06849319196425874,Novotel 
hotel,Pierre & Vacances (Hôtel),48.101736,-4.3513885,29046,0.06849103517885008,Pierre & Vacances 
hotel,Hôtel ibis Styles Macon Saint-Albain La Salle,46.4179477,4.8626402,71383,0.06848721545007103,Hôtel ibis Styles Macon Saint-Albain La Salle
hotel,Holiday Inn Express (Hôtel),48.5100139,7.6980117,67152,0.06848366111610359,Holiday Inn Express 
hotel,Résidence Saletta Appartelment Hôtel,42.6360109,8.9363178,2B134,0.06847553457527827,Résidence Saletta Appartelment Hôtel
hotel,Etap Hotel,43.667133,7.2145598,06088,0.0684744124806289,Etap Hotel
hotel,Hilton (Hôtel),48.8757221,2.3254781,75056,0.06847432775093817,Hilton 
hotel,Kyriad (Hôtel),43.6847276,4.149278,34145,0.06846594665837656,Kyriad 
hotel,Le Mozart (Hôtel),43.5221373,5.4582166,13001,0.06846549238137803,Le Mozart 
hotel,L'Europe (Hôtel),46.5782381,0.3384413,86194,0.0684631501040175,L'Europe 
hotel,Hôtel Le Provence,43.2989788,5.6219625,13042,0.06846264641873477,Hôtel Le Provence
hotel,Fluvia (Hôtel),43.5568387,1.4298826,31555,0.06846155116844345,Fluvia 
hotel,Grand Prix Hotel,43.2535154,5.7767798,83035,0.06845769632668056,Grand Prix Hotel
hotel,Villa Augusta (Hôtel),44.345179,4.7661587,26324,0.0684545058417501,Villa Augusta 
hotel,Novotel (Hôtel),48.081914,-1.6835167,35238,0.06845258665639417,Novotel 
hotel,Hôtel d’Aumont,48.8675646,2.3212876,75056,0.06844752194470151,Hôtel d’Aumont
hotel,Novotel (Hôtel),48.7547543,2.3502944,94065,0.06843771475299137,Novotel 
hotel,Le Bristrol (Hôtel),44.187436,7.158076,06073,0.06843614102637556,Le Bristrol 
hotel,L'Hotel des Thermes,48.5537461,-0.4164282,61483,0.06843596450701583,L'Hotel des Thermes
hotel,Hôtel des Thermes,48.5537461,-0.4164282,61483,0.06843596450701583,Hôtel des Thermes
hotel,Novotel (Hôtel),47.0440824,2.3317647,18255,0.06843550587461673,Novotel 
hotel,La côte d'Opale (Hôtel),50.525806,1.601272,62826,0.06843484014316706,La côte d'Opale 
hotel,Kyriad (Hôtel),46.7537789,4.4890179,71310,0.06843372756842303,Kyriad 
hotel,Hôtel La Mère Jacquet,45.9071707,5.2319566,01450,0.06843354542568789,Hôtel La Mère Jacquet
hotel,VVF Les Terrasses de Maurienne (Hôtel),45.172551,6.494753,73307,0.06843345251575,VVF Les Terrasses de Maurienne 
hotel,Louvre Hôtels,48.8337916,2.6596298,77468,0.0684288357561371,Louvre Hôtels
hotel,Hôtel Moby Dick,41.5245855,9.2715781,2A247,0.06842259672314295,Hôtel Moby Dick
hotel,L'Hostellerie Abbatiale (Hôtel),47.627475,-2.93448,56262,0.06841611121738966,L'Hostellerie Abbatiale 
hotel,Hilton Hotels,48.8109969,2.1204212,78646,0.06841345554052412,Hilton Hotels
hotel,Balladins (Hôtel),47.2463309,4.5651922,21210,0.06840884070438569,Balladins 
hotel,Hameau du Kashmir Resort (Hôtel),45.2986417,6.5761144,73257,0.06838793689763412,Hameau du Kashmir Resort 
hotel,Hôtel Ibis,44.9091838,4.8794417,26362,0.0683809766809783,Hôtel Ibis
hotel,Le Prince Des Cîmes (Hôtel),45.5718625,6.8276962,73054,0.06838045261004974,Le Prince Des Cîmes 
hotel,Grand Hotel de Cala Rossa,41.6218317,9.3385701,2A139,0.0683804174268653,Grand Hotel de Cala Rossa
hotel,Golden Tulip Hotel,45.6886766,5.9113776,73008,0.06837649852193561,Golden Tulip Hotel
hotel,Sylvia (Hôtel),47.8672411,4.5728355,21154,0.06837513093542148,Sylvia 
hotel,Castell Vecchio (Hôtel),41.9334391,8.7402691,2A004,0.06837469352599157,Castell Vecchio 
hotel,Accor (Hôtel),43.6675642,7.2141668,06088,0.06837324015242846,Accor 
hotel,Hôtel Ibis,45.5762125,4.8075105,38087,0.06837266445638479,Hôtel Ibis
hotel,Hôtel Le Monestié,43.3660549,3.2459295,34037,0.06837075289920229,Hôtel Le Monestié
hotel,Mercure (Hôtel),46.0576572,-1.08789,17094,0.06836933552437381,Mercure 
hotel,Les Flamants Roses (Hôtel),42.6746162,3.0331138,66037,0.06835971086081864,Les Flamants Roses 
hotel,Première Classe (Hôtel),43.670157,7.222119,06088,0.06835900394664231,Première Classe 
hotel,Novotel (Hôtel),47.9904546,0.2308292,72181,0.06835864543576156,Novotel 
hotel,Village Club du Soleil (Hôtel),42.768995,0.5780199,31470,0.06835430824656435,Village Club du Soleil 
hotel,Club Med Arc Extrême (Hôtel),45.5726905,6.8341411,73054,0.06835078362778038,Club Med Arc Extrême 
hotel,Hostellerie du Luberon (Hôtel),43.7785074,5.4121605,84140,0.0683479276768706,Hostellerie du Luberon 
hotel,B&B Hôtel Nancy Frouard (1),48.7426689,6.151127,54215,0.06834481517206852,B&B Hôtel Nancy Frouard 
hotel,Mercure (Hôtel),46.668857,0.3594313,86062,0.06834145522868784,Mercure 
hotel,Hôtel Kyriad Jules Verne,46.6680187,0.3596208,86062,0.06833203564304535,Hôtel Kyriad Jules Verne
hotel,Hôtel du Lac,48.9673839,2.3042183,95210,0.06832650903947979,Hôtel du Lac
hotel,Résidhome Val d'Europe (Hôtel),48.854985,2.7705665,77307,0.06832202708666282,Résidhome Val d'Europe 
hotel,Hôtel Bastide de Lourmarin,43.7647476,5.3660403,84068,0.06830543666549084,Hôtel Bastide de Lourmarin
hotel,Hôtel Oceania Aéroport,48.432439,-4.460446,29061,0.06829395063875565,Hôtel Oceania Aéroport
hotel,Hôtel Première Classe,48.6034715,-1.9745969,35284,0.0682923115280924,Hôtel Première Classe
hotel,Hôtel Austerlitz,48.8427503,2.3680656,75056,0.06828435209238382,Hôtel Austerlitz
hotel,Mont Vallon (Hôtel),45.3713725,6.5818918,73015,0.06828392299434545,Mont Vallon 
hotel,Hôtel du Lac,50.997347,2.336678,59016,0.06828333670938003,Hôtel du Lac
hotel,Business Park Hotel,46.2373395,6.0097815,01419,0.06827519144760809,Business Park Hotel
hotel,Hôtel Lyon-Ouest,45.788647,4.8150221,69123,0.06826777527161762,Hôtel Lyon-Ouest
hotel,Hôtel Alparena,45.6267172,6.8624629,73176,0.06826727702793547,Hôtel Alparena
hotel,Ibis Styles (Hôtel),46.7998949,4.8323855,71076,0.0682585854143147,Ibis Styles 
hotel,B&B Hotels,48.6033598,-1.975104,35284,0.06823859191641952,B&B Hotels
hotel,Le Relais du Moulin (Hôtel),47.1581059,1.5691485,36228,0.06823457018133743,Le Relais du Moulin 
hotel,Residhome Roissy Park (Hôtel),48.9986511,2.514606,95527,0.06823339304998136,Residhome Roissy Park 
hotel,Terminal Neige - Totem (Hôtel),46.0046266,6.6938865,74014,0.06822938458879395,Terminal Neige - Totem 
hotel,Font de Gaume (Hôtel),44.9361514,1.023627,24172,0.06822641731940522,Font de Gaume 
hotel,Les Dauphins (Hôtel),46.0465245,-1.4072678,17323,0.06822631925116643,Les Dauphins 
hotel,Domaine du Lac (Hôtel),43.3928748,6.2571596,83057,0.06821612770471434,Domaine du Lac 
hotel,Novotel (Hôtel),50.9379202,1.8103344,62239,0.06821418205425567,Novotel 
hotel,Astoria (Hôtel),44.1902453,0.6144431,47001,0.06820658486046476,Astoria 
hotel,A L'Agneau (Hôtel),48.934715,8.1527631,67305,0.06818716014746568,A L'Agneau 
hotel,Residhome Appart Hotel Paris-Guyancourt,48.775127,2.0718392,78297,0.06818375677340191,Residhome Appart Hotel Paris-Guyancourt
hotel,Hôtel de l'Univers,50.289205,2.7733075,62041,0.06818032044828955,Hôtel de l'Univers
hotel,Accor (Hôtel),48.4575174,-2.0365338,22118,0.06817818532009906,Accor 
hotel,Ace Hotel Valence,44.9004629,4.885064,26362,0.06817814678513584,Ace Hotel Valence
hotel,Hôtel Alton,44.829685,-0.609048,33063,0.06817653195968623,Hôtel Alton
hotel,Inter-Hotel Le Village Provençal,43.6798955,5.5046847,84089,0.06817457853920735,Inter-Hotel Le Village Provençal
hotel,Le Mas des Romarins (Hôtel),43.913259,5.1963682,84050,0.06817426077616054,Le Mas des Romarins 
hotel,Hôtel de Tessé,48.5444915,-0.4285005,61483,0.06817367241468367,Hôtel de Tessé
hotel,Le Saint-Paul (Hôtel),43.6917795,7.292699,06088,0.06817316374637886,Le Saint-Paul 
hotel,Novotel (Hôtel),43.5712948,4.1028938,34344,0.06817173068698684,Novotel 
hotel,Novotel (Hôtel),50.6367059,3.0592285,59350,0.06816547351819978,Novotel 
hotel,Hôtel Ibis Laval,48.0897395,-0.7486949,53054,0.06816119860284946,Hôtel Ibis Laval
hotel,Best Western (Hôtel),46.5263209,0.2794775,86133,0.06814494094447937,Best Western 
hotel,Apart-Hotel Elégance Toulouse-Purpan,43.5979425,1.3951955,31555,0.06814466482758388,Apart-Hotel Elégance Toulouse-Purpan
hotel,Cirius (Hôtel),45.6411395,4.234135,42149,0.0681429295717594,Cirius 
hotel,Les Jardins de Beauval (Hôtel),47.2497216,1.3594324,41239,0.06813412380094157,Les Jardins de Beauval 
hotel,Hôtel de la Saulaie,47.183398,-0.244746,49125,0.06813320950529606,Hôtel de la Saulaie
hotel,Hôtel Alba,43.0920928,-0.0543607,65286,0.06812365372579338,Hôtel Alba
hotel,Atravi (Hôtel),48.9215275,2.128704,78418,0.06812311170182436,Atravi 
hotel,Le Flocon d'Or (Hôtel),45.0060755,6.1185495,38253,0.06812146604690733,Le Flocon d'Or 
hotel,Ibis Budget (Hôtel),45.7872757,3.1396683,63113,0.06810899458588499,Ibis Budget 
hotel,Best Western Palladior (Hôtel),45.3497716,5.5697029,38563,0.06810883217700608,Best Western Palladior 
hotel,Zenitude (Hôtel),43.5744705,7.0219859,06030,0.06810874165980185,Zenitude 
hotel,Novotel - Château de Maffliers - Demeure de campagne (Hôtel),49.0745125,2.3045081,95353,0.06810831118448879,Novotel - Château de Maffliers - Demeure de campagne 
hotel,Accor (Hôtel),49.281676,-0.7183315,14047,0.06809132818647336,Accor 
hotel,Le Meïjotel (Hôtel),45.0098295,6.124768,38253,0.06808665656751646,Le Meïjotel 
hotel,Hôtel des Bains d'Arguin,44.652427,-1.1924802,33009,0.06808227154169366,Hôtel des Bains d'Arguin
hotel,Mercure (Hôtel),49.282155,-0.1172465,14117,0.06808163710536524,Mercure 
hotel,Hôtel Les Charmettes,48.6593902,-1.9963894,35288,0.06807439273081894,Hôtel Les Charmettes
hotel,Appart - hotel,46.1494628,-1.1562184,17300,0.06806803308070977,Appart - hotel
hotel,Hôtel Restaurant Villa Borghèse****,43.7583733,5.8945276,04094,0.0680661849471602,Hôtel Restaurant Villa Borghèse****
hotel,Les Barmes de l'Ours (Hôtel),45.4475785,6.97432,73304,0.06806262166166294,Les Barmes de l'Ours 
hotel,Hampton by Hilton Toulouse Airport (Hôtel),43.6382624,1.3697409,31069,0.06806031716674085,Hampton by Hilton Toulouse Airport 
hotel,Les Arnelles (Hôtel),43.462235,4.4231605,13096,0.06805243941513982,Les Arnelles 
hotel,Pierre & Vacances (Hôtel),45.1728925,6.497531,73307,0.06805142714205467,Pierre & Vacances 
hotel,Cévéo (Hôtel),45.1860895,6.4802155,73307,0.06804942690740196,Cévéo 
hotel,Cuisine et Santé (Hôtel),43.0992044,0.7062115,31483,0.06804747303364062,Cuisine et Santé 
hotel,Hôtel L'Atrium d'Anaite,43.5241036,5.4555156,13001,0.06804230475597896,Hôtel L'Atrium d'Anaite
hotel,Logis du Lièvre d'OR (Hôtel),47.2915969,0.7237798,37154,0.06803725962725544,Logis du Lièvre d'OR 
hotel,Court'Inn aqua (Hôtel),43.9319193,4.7798523,84007,0.0680356608388405,Court'Inn aqua 
hotel,Hôtel Ibis,43.30272,5.3825463,13055,0.0680334650760864,Hôtel Ibis
hotel,Ibis et Etap'Hôtel,46.5504596,0.3035514,86194,0.06802675714934636,Ibis et Etap'Hôtel
hotel,Mercure (Hôtel),46.2123261,5.24157,01053,0.06802571534509183,Mercure 
hotel,Inter-Hôtel Cositel,49.0512499,-1.4603214,50147,0.06802368701532113,Inter-Hôtel Cositel
hotel,Nemea Appart'Hotel,43.619544,7.0755427,06018,0.06801893379720764,Nemea Appart'Hotel
hotel,Court'Inn Suites (Hôtel),43.9352862,4.7804944,84007,0.06801824214627643,Court'Inn Suites 
hotel,MMV - Hôtel Club les Arolles,45.2982735,6.5778271,73257,0.06801722606923512,MMV - Hôtel Club les Arolles
hotel,Novotel (Hôtel),43.286804,5.5110087,13055,0.06801473312608694,Novotel 
hotel,Accor|Ibis Budget (Hôtel),43.8792495,5.3860805,84003,0.06800535810438005,Accor|Ibis Budget 
hotel,FACOPA (Hôtel),43.9424129,4.8021827,84007,0.06800241189536167,FACOPA 
hotel,Holiday Inn (Hôtel),48.8675145,2.145633,78092,0.06799564904554978,Holiday Inn 
hotel,Le Télémark (Hôtel),45.3878503,6.7187168,73206,0.06799358347476916,Le Télémark 
hotel,Altapura (Hôtel),45.2972921,6.5745902,73257,0.06798904156512695,Altapura 
hotel,Hôtel Mercure Nice Cap 3000,43.6614187,7.1959091,06123,0.06798296557289582,Hôtel Mercure Nice Cap 3000
hotel,Les Estudines (Hôtel),46.5804876,0.3323976,86194,0.06798228518098068,Les Estudines 
hotel,Appart'City Confort (Hôtel),47.6435605,-2.745338,56260,0.06797852564835963,Appart'City Confort 
hotel,Quality Hotel Le Cervolan,45.63678,5.890922,73329,0.0679781933126851,Quality Hotel Le Cervolan
hotel,Le Donjon (Hôtel),46.121497,1.625578,23021,0.06797086827130741,Le Donjon 
hotel,Grand Hôtel de Nîmes,43.8147279,4.3458526,30189,0.06796809930858433,Grand Hôtel de Nîmes
hotel,Le Bahia (Hôtel),43.7028395,7.3247908,06159,0.06796774193011583,Le Bahia 
hotel,Hôtel Eden Roc,43.5483839,7.1217026,06004,0.06796095108197003,Hôtel Eden Roc
hotel,Mama Shelter Paris West (Hôtel),48.8291142,2.2919308,75056,0.06795954039338101,Mama Shelter Paris West 
hotel,Accor|Mercure Hotels,43.1148475,6.1343105,83069,0.0679517755984011,Accor|Mercure Hotels
hotel,Odalys Résidence Olympe (Hôtel),43.5999895,7.0939326,06004,0.06794900299966426,Odalys Résidence Olympe 
hotel,Résidence de tourisme (Hôtel),48.7779562,2.4173159,94002,0.06794395418961549,Résidence de tourisme 
hotel,Mercure Bordeaux Aéroport (Hôtel),44.835636,-0.692377,33281,0.06794226111480049,Mercure Bordeaux Aéroport 
hotel,L'Auberge Fleurie (Hôtel),44.6111384,2.6639072,12172,0.06794066731241437,L'Auberge Fleurie 
hotel,Hôtel Méditérannée,43.0926469,-0.0536557,65286,0.067939618474439,Hôtel Méditérannée
hotel,ibis (Hôtel),47.815107,3.5621805,89024,0.06793789570148749,ibis 
hotel,Centre Bellevue (Hôtel),45.476098,5.5506762,38292,0.06793099948162667,Centre Bellevue 
hotel,Grand Hôtel - Domaine de Divonne,46.3570995,6.138522,01143,0.06792594052114209,Grand Hôtel - Domaine de Divonne
hotel,Hôtel Mercure Troyes Centre,48.2927745,4.0796955,10387,0.06792032550516097,Hôtel Mercure Troyes Centre
hotel,Accor Hôtel,43.1197775,5.9350283,83137,0.06791593923295247,Accor Hôtel
hotel,La Pomme d'Or (Hôtel),48.4939785,-2.722676,22106,0.06791522782557899,La Pomme d'Or 
hotel,DoubleTree by Hilton Carcassonne (Hôtel),43.2108309,2.358266,11069,0.0679091539154017,DoubleTree by Hilton Carcassonne 
hotel,Abbaye de Sainte-Croix (Hôtel),43.6522793,5.1312723,13103,0.06790681140221891,Abbaye de Sainte-Croix 
hotel,Châteaux de France (Hôtel),43.764509,5.3621374,84068,0.06790641283980484,Châteaux de France 
hotel,L'Orée du Bois (Hôtel),49.0703695,5.0088873,55202,0.06790609425310865,L'Orée du Bois 
hotel,Ibis Budget (Hôtel),48.8907075,2.1788068,92063,0.0679025252346713,Ibis Budget 
hotel,Grand Hôtel Barrière,48.6332795,-2.0518633,35093,0.06789479495183962,Grand Hôtel Barrière
hotel,Quality Hotel du Golf Montpellier Juvignac,43.6272865,3.804103,34123,0.06788718000789315,Quality Hotel du Golf Montpellier Juvignac
hotel,Ibis Hotel,45.8235976,4.9953555,01043,0.0678853536926451,Ibis Hotel
hotel,Hôtel l'Orée de Chartres,48.4148503,1.4643459,28024,0.06787323495675934,Hôtel l'Orée de Chartres
hotel,Hôtel Continental,45.9185841,3.0626938,63103,0.06787262000514484,Hôtel Continental
hotel,L'Hôtel,48.601319,2.3595835,91494,0.06786574464083223,L'Hôtel
hotel,Hôtel La Folie,46.9733649,3.1314407,58194,0.0678655997008569,Hôtel La Folie
hotel,Cap West (Hôtel),49.0255068,2.1995248,95607,0.06786271978730339,Cap West 
hotel,Le Relais de Saint-Preuil (Hôtel),45.6005532,-0.1627495,16343,0.06786001769906252,Le Relais de Saint-Preuil 
hotel,Pentahotel Paris CDG Airport,48.998773,2.515885,95527,0.06784969008072174,Pentahotel Paris CDG Airport
hotel,Hôtel Mercure Antigone Montpellier 080617,43.6091523,3.8938614,34172,0.06784929394250556,Hôtel Mercure Antigone Montpellier 080617
hotel,Marriott (Hôtel),43.6559548,1.3688031,31069,0.06784607680951538,Marriott 
hotel,Monte Bianco (Hôtel),45.8875775,6.7084715,74236,0.06784588868517223,Monte Bianco 
hotel,Le Grand Hôtel,44.3830606,4.98703,84138,0.06784062052625547,Le Grand Hôtel
hotel,B&B Hotels,43.5110491,5.4467266,13001,0.06783877203657392,B&B Hotels
hotel,Campanille (Hôtel),47.8155174,1.9404916,45234,0.0678377365117096,Campanille 
hotel,Village Club du Soleil - Arc 1800 (Hôtel),45.5688595,6.776147,73054,0.06782413059141255,Village Club du Soleil - Arc 1800 
hotel,Aquabella (Hôtel),43.5310932,5.4446958,13001,0.06782039575667584,Aquabella 
hotel,Hôtel Renaissance,43.5259585,5.4379447,13001,0.06781823864818366,Hôtel Renaissance
hotel,Hôtel Ibis Styles Bourges,47.0489951,2.3452837,18033,0.06781575540195899,Hôtel Ibis Styles Bourges
hotel,Hôtel Mercure,43.3300971,-0.3537204,64445,0.06781482585397769,Hôtel Mercure
hotel,Kyriad (Hôtel),48.262245,2.7250399,77156,0.06780817772225341,Kyriad 
hotel,Appart'City (Hôtel),43.2284905,2.3603705,11069,0.06780244601201642,Appart'City 
hotel,Hôtel Roc e Mare,41.6808948,8.9156818,2A249,0.06779971210696331,Hôtel Roc e Mare
hotel,Sejours et Affaires (Hôtel),46.3322535,6.064589,01173,0.06779478422754787,Sejours et Affaires 
hotel,Crowne Plaza (Hôtel),43.6128199,3.8839663,34172,0.06779368840999245,Crowne Plaza 
hotel,L'Auberge fleurie (Hôtel),48.5517622,-0.4251254,61483,0.06779232088144166,L'Auberge fleurie 
hotel,Contact Hôtel,46.6103234,0.33859,86194,0.06779166659291941,Contact Hôtel
hotel,Hôtel Solana,46.3398398,-0.3971814,79081,0.06778687070382687,Hôtel Solana
hotel,Hostellerie le Beffroi (Hôtel),44.2386865,5.0726944,84137,0.06778431609226755,Hostellerie le Beffroi 
hotel,Courtyard by Mariott Paris-Colombes (Hôtel),48.9124357,2.2310306,92025,0.06777897164011021,Courtyard by Mariott Paris-Colombes 
hotel,Hôtel La Bonne Etape,44.0938075,6.0106334,04049,0.06777418188869255,Hôtel La Bonne Etape
hotel,Park Inn Hotel,43.6673367,7.2089793,06088,0.06775552364331297,Park Inn Hotel
hotel,Standing by Suite (Hôtel),49.000801,2.5197035,95527,0.06775104612833154,Standing by Suite 
hotel,Hôtel Club Le Risoux,46.5481005,6.1453688,39059,0.06774977226000894,Hôtel Club Le Risoux
hotel,Résidence Studio Grandmont (Hôtel),47.362411,0.6963406,37261,0.06774788428167734,Résidence Studio Grandmont 
hotel,Tropic Hôtel,42.795432,2.881494,66164,0.06774663992982613,Tropic Hôtel
hotel,Résidence Club MMV le Hameau des Airelles (Hôtel),44.9348606,6.7304403,05085,0.06774144192126934,Résidence Club MMV le Hameau des Airelles 
hotel,Hôtel IBIS Troyes Centre,48.2929763,4.0805921,10387,0.06773481258986833,Hôtel IBIS Troyes Centre
hotel,Balladins (Hôtel),49.2477932,1.1869241,27701,0.06773425591569747,Balladins 
hotel,Le Relais des Canardières (Hôtel),48.7841162,2.0157199,78621,0.06772680501028464,Le Relais des Canardières 
hotel,Mercure (Hôtel),45.4192142,4.4160634,42218,0.06772313891325021,Mercure 
hotel,Novotel (Hôtel),45.8671039,1.2709539,87085,0.06771613604278377,Novotel 
hotel,Palmyra Golf Hôtel,43.2837006,3.49648,34003,0.06771610420645853,Palmyra Golf Hôtel
hotel,Mercure Grenoble Alpha Meylan Hotel,45.2020455,5.758915,38229,0.06770663782506683,Mercure Grenoble Alpha Meylan Hotel
hotel,Pra Ste Marie Odalys (Hôtel),44.5967447,6.689497,05177,0.06770623717525776,Pra Ste Marie Odalys 
hotel,Apart Hotel,48.888516,2.2523709,92026,0.06770618670031728,Apart Hotel
hotel,Hôtel Ibis la Roche sur Yon,46.7106876,-1.4304415,85155,0.06769703260161092,Hôtel Ibis la Roche sur Yon
hotel,Le Patio occitan (Hôtel),43.5520121,1.3375902,31157,0.06769686366651526,Le Patio occitan 
hotel,Première Classe (Hôtel),45.7843105,3.1105573,63113,0.0676917969772771,Première Classe 
hotel,Holiday Inn (Hôtel),49.2543875,4.0240527,51454,0.06769043601591226,Holiday Inn 
hotel,Hôtel Parc Beaumont,43.2971906,-0.3594398,64445,0.0676901749026183,Hôtel Parc Beaumont
hotel,Vacanciel (Hôtel),45.3793659,6.7219401,73206,0.0676893405642841,Vacanciel 
hotel,HiPark (Hôtel),43.7049189,7.2850459,06088,0.0676844702836358,HiPark 
hotel,Brit Hotel,43.5741447,3.9450553,34198,0.06768247884713899,Brit Hotel
hotel,Best Mont Blanc (Hôtel),45.9221022,6.8726569,74056,0.06768207430161359,Best Mont Blanc 
hotel,Les Horizons d'Huez (Hôtel),45.0862885,6.0685317,38191,0.06767894175195152,Les Horizons d'Huez 
hotel,Domaine du Revermont (Hôtel),46.80423,5.6208145,39407,0.06767821680797312,Domaine du Revermont 
hotel,Fasthôtel,47.3287189,0.700491,37050,0.06767611099569588,Fasthôtel
hotel,La Grenouillère (Hôtel),48.128962,-1.195872,35360,0.06767229515135509,La Grenouillère 
hotel,Best Western (Hôtel),48.1975351,6.4648219,88160,0.067671582261437,Best Western 
hotel,Le Grand Hôtel,47.3899192,0.6923221,37261,0.06767143657012359,Le Grand Hôtel
hotel,Hôtel Golden Tulip,43.3098382,5.3673046,13055,0.06767040038188907,Hôtel Golden Tulip
hotel,U Libecciu (Hôtel),41.4760652,9.0677111,2A215,0.06766922252764783,U Libecciu 
hotel,Le Hameau Du Glacier (Hôtel),45.5718686,6.8269271,73054,0.06766323236526295,Le Hameau Du Glacier 
hotel,Inter-Hotel Flathotel,42.6571355,2.9277334,66189,0.06766172152075237,Inter-Hotel Flathotel
hotel,Ibis Budget (Hôtel),45.6901943,4.8610139,69199,0.06766068841278622,Ibis Budget 
hotel,Accor (Hôtel),46.160669,-1.158643,17300,0.0676594585253564,Accor 
hotel,Hôtel Azur Bord de Mer,43.5558659,4.0835081,34344,0.06765120508998819,Hôtel Azur Bord de Mer
hotel,Chauteau d'Alteville (Hôtel),48.7736631,6.7670673,57664,0.06765048172354615,Chauteau d'Alteville 
hotel,Saskia (Hôtel),46.1914807,6.770287,74191,0.0676479056746396,Saskia 
hotel,Hôtel le Président,43.6111829,1.4488205,31555,0.0676444806632424,Hôtel le Président
hotel,Hôtel Diana,48.5379772,7.4963135,67300,0.06764371177222306,Hôtel Diana
hotel,All Seasons (Hôtel),49.0070785,2.520367,95527,0.06764157325683948,All Seasons 
hotel,Cap Vert (Hôtel),43.9558393,2.8934731,12208,0.06763939589844686,Cap Vert 
hotel,Le Crêt (Hôtel),45.4546875,6.971738,73304,0.06763540500064662,Le Crêt 
hotel,Kyriad Cap Sud (Hôtel),43.9277109,4.8464074,84007,0.0676294952282661,Kyriad Cap Sud 
hotel,Navarra Hoteles,43.6302293,1.3766796,31069,0.06762663088150941,Navarra Hoteles
hotel,Les Dryades (Hôtel),46.484198,2.0069331,36163,0.06762263127239665,Les Dryades 
hotel,The Originals Hôtel City Le Garden Tours Sud,47.3372014,0.7365134,37050,0.06761237003487253,The Originals Hôtel City Le Garden Tours Sud
hotel,Les Chataigniers (Hôtel),43.6493373,3.957475,34327,0.06761156237504706,Les Chataigniers 
hotel,Casino (Hôtel),44.6170492,-1.0944552,33199,0.06761003218994091,Casino 
hotel,Le Bayonne Hôtel & Spa,43.4853219,-1.4753634,64102,0.06760356197415936,Le Bayonne Hôtel & Spa
hotel,Hôtel Ibis,45.4173885,2.0581103,19073,0.06760074202227584,Hôtel Ibis
hotel,Chamois Blanc (Hôtel),45.9175223,6.8675314,74056,0.06759742902504524,Chamois Blanc 
hotel,Baya Hôtel et Spa,43.649665,-1.4450515,40065,0.06759733536705088,Baya Hôtel et Spa
hotel,Hôtel Kyriad,48.0589248,-0.7771006,53130,0.06759596134615954,Hôtel Kyriad
hotel,Hôtel Marne La Vallée,48.8383805,2.7061035,77058,0.06759351435564126,Hôtel Marne La Vallée
hotel,Résidence Hôtel Les Ducs De Chevreuse,48.6993099,2.0351995,78160,0.0675909222652118,Résidence Hôtel Les Ducs De Chevreuse
hotel,Domaine des Thômeaux (Hôtel),47.4547769,1.0984467,37161,0.06758878014243702,Domaine des Thômeaux 
hotel,Hôtel Renaissance,48.8925981,2.2328451,92062,0.06758734840541414,Hôtel Renaissance
hotel,Hôtel Beauregard,45.905198,6.4309925,74080,0.06758419961201173,Hôtel Beauregard
hotel,Adagio Access (Hôtel),48.7269004,2.2582872,91377,0.0675818741348756,Adagio Access 
hotel,Le Domaine du Golf (Hôtel),48.1235684,7.2566197,68005,0.06756040804741731,Le Domaine du Golf 
hotel,Golf Hotel Mont Griffon,49.1107354,2.3952802,95352,0.06755934113987178,Golf Hotel Mont Griffon
hotel,Hôtel du Château,44.8019679,1.6140762,46240,0.06755826562725423,Hôtel du Château
hotel,Brit Hotel,46.5767895,0.3724182,86194,0.0675561608324391,Brit Hotel
hotel,Ibis Styles (Hôtel),49.424976,1.0685847,76540,0.06755132638190094,Ibis Styles 
hotel,Hôtel St Eloi,49.2421165,6.1338305,57019,0.06755068486534159,Hôtel St Eloi
hotel,Les Allées du Green (Hôtel),46.99494,4.8801162,21347,0.06754594076324867,Les Allées du Green 
hotel,Hôtel Royal,47.281805,-2.405074,44055,0.06754428279515466,Hôtel Royal
hotel,Première Classe (Hôtel),50.9538341,1.8518745,62193,0.06754282419431341,Première Classe 
hotel,Hôtel Cahuzac,43.6248875,0.8810762,32147,0.06753642563975239,Hôtel Cahuzac
hotel,Le Roc Saint-Jean (Hôtel),46.4666573,-1.73523,85194,0.06753392066633057,Le Roc Saint-Jean 
hotel,Suitehotel,43.6098903,3.8949972,34172,0.06752620026924219,Suitehotel
hotel,Hôtel d'Europe,43.9504912,4.8035269,84007,0.06752437079108062,Hôtel d'Europe
hotel,Hôtel Mercure,48.8548249,2.2922891,75056,0.06752282694600398,Hôtel Mercure
hotel,Best Western (Hôtel),42.7028555,9.4407446,2B033,0.06752245891145925,Best Western 
hotel,Hôtel Cordouan - Thalazur,45.6183187,-1.0411108,17306,0.06751758051965327,Hôtel Cordouan - Thalazur
hotel,Hôtel Ibis Montauban,44.0052573,1.3837778,82121,0.06751329311137547,Hôtel Ibis Montauban
hotel,Auberge du Parc (Hôtel),43.7819471,5.0456427,13067,0.06751131124433975,Auberge du Parc 
hotel,Belambra Clubs (Hôtel),45.3271423,6.5381468,73257,0.0675094540963505,Belambra Clubs 
hotel,Hilton Garden Inn (Hôtel),48.7484711,2.3559232,94065,0.06750531442886967,Hilton Garden Inn 
hotel,Best Western Hotel,44.9069836,4.9092091,26362,0.06750077350654615,Best Western Hotel
hotel,Hôtel du Parc-Pirates - Résidence Eolia 2,46.6678175,0.3582006,86062,0.06749914973829235,Hôtel du Parc-Pirates - Résidence Eolia 2
hotel,Les Chalets du Gypse (Hôtel),45.3778784,6.5067171,73257,0.06749855430137686,Les Chalets du Gypse 
hotel,Hôtel Plazza Alpexpo Grenoble,45.1585401,5.7343845,38185,0.06749659224323219,Hôtel Plazza Alpexpo Grenoble
hotel,Adagio Access Aparthotel,49.4877432,0.1318301,76351,0.06749453139555606,Adagio Access Aparthotel
hotel,Hôtel ibis Arcachon la Teste,44.6169925,-1.1398715,33529,0.06749089150097003,Hôtel ibis Arcachon la Teste
hotel,Hôtel Oceania Paris Porte De Versailles,48.8303422,2.284036,92040,0.0674878823942928,Hôtel Oceania Paris Porte De Versailles
hotel,Les Hameau de Barthelemy (Hôtel),45.6249493,6.8587508,73176,0.06747755270064747,Les Hameau de Barthelemy 
hotel,Première Classe Bordeaux Aéroport (Hôtel),44.8362305,-0.6794985,33281,0.06747300842229573,Première Classe Bordeaux Aéroport 
hotel,Hôtel Métropole,45.7885225,4.8201505,69123,0.06747084147912139,Hôtel Métropole
hotel,Warwick - Reine Astrid (Hôtel),45.7749355,4.8474639,69123,0.06746467896673568,Warwick - Reine Astrid 
hotel,Hôtel du Portugal,42.5441697,2.3894398,66222,0.06746214457017899,Hôtel du Portugal
hotel,Résidence Le Relax (Hôtel),41.6011473,9.2801057,2A247,0.06746167053889743,Résidence Le Relax 
hotel,Mas de la Fouque (Hôtel),43.466643,4.4043965,13096,0.06745983819270078,Mas de la Fouque 
hotel,Le Centre de Mittelwihr (Hôtel),48.1500267,7.3150093,68209,0.06745821659907761,Le Centre de Mittelwihr 
hotel,Accor (Hôtel),48.8542639,2.488008,94033,0.0674542400919018,Accor 
hotel,Accor (Hôtel),45.7906081,4.8598336,69034,0.06745215613536748,Accor 
hotel,Les Jardins de la Cascade (Hôtel),45.5725245,6.8279939,73054,0.06744671032053193,Les Jardins de la Cascade 
hotel,Holiday Inn Express Grenoble - Bernin (Hôtel),45.2652697,5.8753755,38039,0.06744304450596714,Holiday Inn Express Grenoble - Bernin 
hotel,Agena Hôtel,50.5855951,3.0870397,59220,0.0674400146717832,Agena Hôtel
hotel,Ascotel Lille Est Grand Stade (Hôtel),50.6106502,3.1371481,59009,0.06743782836182022,Ascotel Lille Est Grand Stade 
hotel,Adonis Hotel Le Bastia,42.6974302,9.444974,2B033,0.06743769619396353,Adonis Hotel Le Bastia
hotel,Hôtel du Parc,43.6625875,-1.427399,40304,0.06743312626673229,Hôtel du Parc
hotel,Hôtel le Tulipier,49.1912838,4.8830956,51621,0.06743215195655643,Hôtel le Tulipier
hotel,Citadines (Hôtel),43.6087339,3.8897084,34172,0.06742616542035862,Citadines 
hotel,Pashmina (Hôtel),45.2956006,6.5872325,73257,0.06742257968252588,Pashmina 
hotel,Les Ravines (Hôtel),45.397095,6.5657503,73015,0.06742231101772692,Les Ravines 
hotel,Le Clos de l'Aube Rouge (Hôtel),43.6383701,3.9268396,34057,0.0674219786350292,Le Clos de l'Aube Rouge 
hotel,Hôtel Les Cleunes,45.8387281,-1.2030601,17411,0.06742192765528587,Hôtel Les Cleunes
hotel,Carnac Hotel Resort,47.571898,-3.0804508,56034,0.06741872502318902,Carnac Hotel Resort
hotel,Hôtel l'Aigle des Neiges,45.4476603,6.9806132,73304,0.06741376055877155,Hôtel l'Aigle des Neiges
hotel,Séjours & Affaires (Hôtel),48.1156104,-1.7071671,35238,0.06741021924472913,Séjours & Affaires 
hotel,Au Coeur du Village (Hôtel),45.9049245,6.42266,74080,0.06740892550527695,Au Coeur du Village 
hotel,Snow (Hôtel),46.1907697,6.7782309,74191,0.06740638945813175,Snow 
hotel,La Cité Suspendue (Hôtel),49.1278195,2.5693002,60494,0.0674038961794325,La Cité Suspendue 
hotel,AC Hotels by Marriott,43.5685152,7.1167536,06004,0.06740368985453236,AC Hotels by Marriott
hotel,Novotel (Hôtel),48.9529885,2.485555,93005,0.06740302384025323,Novotel 
hotel,"Hôtel Spa, Le Couvent Des Minimes",43.9394425,5.7720695,04111,0.06739419317846383,"Hôtel Spa, Le Couvent Des Minimes"
hotel,Meliá Paris La Défense (Hôtel),48.888547,2.2504851,92026,0.06739226060823704,Meliá Paris La Défense 
hotel,Le Yule (Hôtel),45.447833,6.97901,73304,0.06739209290137861,Le Yule 
hotel,Le Refuge Du Montagnard (Hôtel),45.5723277,6.826564,73054,0.06738888369352586,Le Refuge Du Montagnard 
hotel,Relais du Silence (Hôtel),48.7692119,-3.5794785,22343,0.06738819515386622,Relais du Silence 
hotel,Best Western Plus (Hôtel),48.753405,2.350738,94065,0.06738681706172377,Best Western Plus 
hotel,Espace 2 (Hôtel),45.172063,6.497583,73307,0.06738439672377877,Espace 2 
hotel,Carlina (Hôtel),45.9070795,6.427126,74080,0.06737872973501254,Carlina 
hotel,Ferme de la Chapelle (Hôtel),49.767468,0.3714065,76259,0.06737861036864018,Ferme de la Chapelle 
hotel,Grand Hotel de la Mer,48.2339025,-4.4969333,29042,0.0673766887894334,Grand Hotel de la Mer
hotel,Inter-Hôtel,49.339615,0.3587725,27065,0.06736987279388261,Inter-Hôtel
hotel,All Suites Appart Hôtel Pichet,48.7589485,2.3465817,94065,0.06736836229238806,All Suites Appart Hôtel Pichet
hotel,Domaine de Verchant (Hôtel),43.6227665,3.92304,34057,0.06736677379460251,Domaine de Verchant 
hotel,Accor Hotels,49.6368877,-1.6188726,50129,0.06736400910865901,Accor Hotels
hotel,Eden Roc (Hôtel),41.9088425,8.636004,2A004,0.06736321935032254,Eden Roc 
hotel,Mercure (Hôtel),47.7437408,7.3417776,68224,0.06736175497108998,Mercure 
hotel,Mercure (Hôtel),49.1454785,0.2598985,14366,0.06735892654687628,Mercure 
hotel,Hôtel des Lumières,45.7596569,5.0299629,69282,0.06735769524162924,Hôtel des Lumières
hotel,Marriott (Hôtel),49.002316,2.52017,95527,0.06735731545601316,Marriott 
hotel,Autograph Collection (Hôtel),49.2535705,4.0314302,51454,0.0673544945703763,Autograph Collection 
hotel,Etap Hotel,43.494771,5.3686477,13001,0.06735444325658285,Etap Hotel
hotel,Château de Lignan (Hôtel),43.3853045,3.1652355,34140,0.06735199126081576,Château de Lignan 
hotel,Brit Hotel,49.2027295,-0.390246,14118,0.06735025766496612,Brit Hotel
hotel,Adagio (Hôtel),43.3015652,5.3708896,13055,0.06734887150375102,Adagio 
hotel,Hôtel Restaurant Au Week-End,49.027611,2.058329,95127,0.06734838193267331,Hôtel Restaurant Au Week-End
hotel,Holiday Inn Express (Hôtel),43.6393441,1.3779567,31069,0.06734672028005403,Holiday Inn Express 
hotel,Hôtel Mercure,47.8169851,6.373613,70311,0.06734286242897544,Hôtel Mercure
hotel,B2B (Hôtel),48.7342764,2.2302029,91312,0.06734174069853667,B2B 
hotel,Kyriad (Hôtel),49.20315,2.4597525,60282,0.06734033947237154,Kyriad 
hotel,Les Mouettes (Hôtel),42.6273796,9.0118154,2B034,0.06733596191592679,Les Mouettes 
hotel,Novotel (Hôtel),49.0016159,2.5200286,95527,0.06733445523488524,Novotel 
hotel,Bellachat (Hôtel),45.9148,6.469391,74080,0.06733395484356028,Bellachat 
hotel,Hôtel ibis Montbeliard,47.4992077,6.8169052,25388,0.06732955346971863,Hôtel ibis Montbeliard
hotel,Hôtel du Roi Arthur,47.942216,-2.410778,56165,0.06732859803683955,Hôtel du Roi Arthur
hotel,Best Western Plus (Hôtel),48.821313,-3.013829,22210,0.06732816519579676,Best Western Plus 
hotel,Le Caribou (Hôtel),45.17328,6.4951105,73307,0.06732621790484587,Le Caribou 
hotel,Adagio Access (Hôtel),48.9157923,2.2887159,92004,0.06732392766226285,Adagio Access 
hotel,NH Nice (Hôtel),43.7077884,7.2829157,06088,0.0673172142427004,NH Nice 
hotel,Holiday Inn (Hôtel),44.7888849,-0.6464644,33318,0.06731668333873428,Holiday Inn 
hotel,Cap Estel (Hôtel),43.7183193,7.3741043,06059,0.06731647958267134,Cap Estel 
hotel,Hôtel de la Mer,48.6761164,-4.3379759,29021,0.06731560726280768,Hôtel de la Mer
hotel,Comfort Inn (Hôtel),45.186667,5.7550255,38421,0.06731556534564018,Comfort Inn 
hotel,Première Classe (Hôtel),43.9759922,4.8721389,84092,0.06731379991978889,Première Classe 
hotel,Royal Riviera (Hôtel),43.7019888,7.3287473,06121,0.06731224265070712,Royal Riviera 
hotel,Residhome Toulouse Tolosa (Hôtel),43.6067313,1.3993433,31555,0.06730723619293676,Residhome Toulouse Tolosa 
hotel,Hôtel Résidence Edenarc,45.5738787,6.7855275,73054,0.0673068312090971,Hôtel Résidence Edenarc
hotel,Novotel (Hôtel),48.7317936,2.3704157,94054,0.0673065024551836,Novotel 
hotel,Best Western (Hôtel),48.1670658,7.3012132,68277,0.06730569472280555,Best Western 
hotel,Le Provençal (Hôtel),44.8910415,-0.5645995,33063,0.06730431379745135,Le Provençal 
hotel,Grand Hôtel Aston,43.6981125,7.272091,06088,0.06730268915067524,Grand Hôtel Aston
hotel,Hôtel - Restaurant Les Caps,48.466699,-2.545763,22093,0.06730084256930942,Hôtel - Restaurant Les Caps
hotel,Calvi Hotel,42.5578814,8.7589991,2B050,0.06729806904248373,Calvi Hotel
hotel,Accor Hôtels,49.259575,4.0256118,51454,0.06728997711938989,Accor Hôtels
hotel,Hôtel Residéal,43.5898548,7.1190766,06004,0.06728528993365886,Hôtel Residéal
hotel,Hôtel des Bains,48.6324487,-2.2555346,22282,0.06727991235904084,Hôtel des Bains
hotel,Hôtel Mercure Strasbourg Palais des Congres,48.5960489,7.7580282,67482,0.06727789090390451,Hôtel Mercure Strasbourg Palais des Congres
hotel,Grand Hôtel du Cap Ferrat,43.6769652,7.3314385,06121,0.06727546936766066,Grand Hôtel du Cap Ferrat
hotel,Les Loges du Park (Hôtel),45.6888981,5.9107354,73008,0.06727468094962705,Les Loges du Park 
hotel,Hôtel Napoléon,42.6332693,8.9394233,2B134,0.06726894622054803,Hôtel Napoléon
hotel,Ville de Lyon (Hôtel),45.2484795,6.255284,73116,0.06726707037781554,Ville de Lyon 
hotel,Hôtel Restaurant Les Géraniums,44.1358629,5.0991429,84008,0.06726525665160137,Hôtel Restaurant Les Géraniums
hotel,Palace de Menthon (Hôtel),45.8544013,6.1889675,74176,0.06726413462775621,Palace de Menthon 
hotel,Cofigolf (Hôtel),43.6519878,7.024323,06089,0.06726108194992532,Cofigolf 
hotel,Apparthôtel Privilodges Lyon Mermoz,45.735168,4.8749564,69123,0.06725923351209728,Apparthôtel Privilodges Lyon Mermoz
hotel,Hôtel Ibis Budget,43.4604607,5.8626337,83116,0.06725891561520952,Hôtel Ibis Budget
hotel,Hôtel Costa Salina,41.5884506,9.2866577,2A247,0.06725754914166573,Hôtel Costa Salina
hotel,Château de Coudrée (Hôtel),46.3402795,6.383247,74263,0.06725505980252176,Château de Coudrée 
hotel,Manoir Hôtel,50.5016155,1.598255,62826,0.06725454158725735,Manoir Hôtel
hotel,Domaine de la Chabotterie (Hôtel),46.8772152,-1.4080363,85197,0.06725413851388125,Domaine de la Chabotterie 
hotel,Hôtel Chiffre,43.9269225,2.1497637,81004,0.06724903133583332,Hôtel Chiffre
hotel,Mama Shelter (Hôtel),48.8599349,2.4026081,75056,0.06724772005682161,Mama Shelter 
hotel,Hôtel Chantereyne,49.6447922,-1.6247631,50129,0.06724622197737289,Hôtel Chantereyne
hotel,Hôtel La Mourra,45.4467618,6.9846412,73304,0.06724504403183254,Hôtel La Mourra
hotel,Westminster (Hôtel),43.694994,7.260652,06088,0.06724414613312509,Westminster 
hotel,Ibis Styles (Hôtel),48.7332505,2.3137435,92002,0.06724159150042755,Ibis Styles 
hotel,Le Taos (Hôtel),45.4698458,6.9096678,73296,0.06723677118353566,Le Taos 
hotel,La Bastide d'Entraigues (Hôtel),44.0047293,4.9291444,84043,0.06723536368661606,La Bastide d'Entraigues 
hotel,Hôtel Le Lys,42.8897612,-0.1158986,65138,0.06723481874246107,Hôtel Le Lys
hotel,Aquakub (Hôtel),45.6930878,5.8923954,73008,0.0672286626641814,Aquakub 
hotel,Le Mas de Causserène (Hôtel),43.3921027,6.3473132,83031,0.06722556060949664,Le Mas de Causserène 
hotel,Castel Clara (Hôtel),47.3046324,-3.2268471,56009,0.0672250194717103,Castel Clara 
hotel,Résidence Hôtelière l'Académie de Montpellier,43.6472361,3.9528185,34327,0.06722350104587306,Résidence Hôtelière l'Académie de Montpellier
hotel,Ibis Budget (Hôtel),44.083248,4.0740176,30243,0.06722244911202487,Ibis Budget 
hotel,Ville de Vitrolles (Hôtel),45.019715,6.6345805,05093,0.06722012330055209,Ville de Vitrolles 
hotel,Hôtel Mont Blanc,45.9232437,6.868137,74056,0.06721835823674902,Hôtel Mont Blanc
hotel,Hôtel Capaô,43.2767768,3.4946961,34003,0.06721823670439214,Hôtel Capaô
hotel,Mercure (Hôtel),49.8960615,2.299499,80021,0.06721679211287458,Mercure 
hotel,Hôtel La Closeraie de Pouzilhac,44.037334,4.5830152,30207,0.06720700457324072,Hôtel La Closeraie de Pouzilhac
hotel,Comfort Suites Pau Idron (Hôtel),43.3027108,-0.3105275,64269,0.06720489211456887,Comfort Suites Pau Idron 
hotel,Résidence Pierre et Vacances Saint-Goustan (Hôtel),47.3009172,-2.5226999,44049,0.06720119363826031,Résidence Pierre et Vacances Saint-Goustan 
hotel,Le Sampiero (Hôtel),42.6639212,9.4417385,2B033,0.06719595754307545,Le Sampiero 
hotel,Relais de Franche-Comté (Hôtel),47.1462752,6.3327157,25578,0.06719466046040441,Relais de Franche-Comté 
hotel,ibis styles (Hôtel),46.1224188,6.0956111,74201,0.06719071033784321,ibis styles 
hotel,Accor Hotels,49.3801125,2.7851675,60338,0.06718953232884234,Accor Hotels
hotel,Adagio Toulouse Aéroport (Hôtel),43.605821,1.3582189,31555,0.06718798071967559,Adagio Toulouse Aéroport 
hotel,Novotel (Hôtel),48.8920509,2.3023949,75056,0.06718294218464511,Novotel 
hotel,Hôtel Ibis Vannes,47.670028,-2.7680105,56260,0.06717983301238913,Hôtel Ibis Vannes
hotel,Ferré Hotels,48.8378956,2.3183866,75056,0.06717907837625836,Ferré Hotels
hotel,Kyriad (Hôtel),45.7399094,-0.6649901,17415,0.06717784475190254,Kyriad 
hotel,Ibis Hotel,48.776241,2.3669545,94021,0.06717730844733937,Ibis Hotel
hotel,Hôtel des Pirates,48.2606813,4.6133605,10126,0.06717729400518138,Hôtel des Pirates
hotel,Best Western (Hôtel),44.4462834,1.4322946,46042,0.06717683750624828,Best Western 
hotel,Hôtel de l'Isle,45.6148905,5.2237825,38193,0.06717503750035074,Hôtel de l'Isle
hotel,Hôtel Moderne,43.0962906,-0.0542068,65286,0.06717022892950315,Hôtel Moderne
hotel,Hôtel Villa Marlioz,45.6726196,5.9115316,73008,0.06716990750533665,Hôtel Villa Marlioz
hotel,La Neustrie (Hôtel),49.1675089,-1.5883457,50403,0.06716949242357073,La Neustrie 
hotel,Hôtel Kyriad,48.9314333,2.2122788,95063,0.06716417957409002,Hôtel Kyriad
hotel,Clarion Suites Narbonne Île Du Gua (Hôtel),43.1915801,3.0005408,11262,0.06715862456228369,Clarion Suites Narbonne Île Du Gua 
hotel,Hôtel Domaine De La Petite Isle,43.9150855,5.0715403,84054,0.06715751914371913,Hôtel Domaine De La Petite Isle
hotel,L'Alexain (Hôtel),48.0997117,7.2349436,68237,0.06715329790783398,L'Alexain 
hotel,Appart'City (Hôtel),48.4021238,-4.469644,29019,0.06715175215010817,Appart'City 
hotel,Kyriad (Hôtel),50.9949955,2.2026535,59359,0.06714946685976919,Kyriad 
hotel,M3 (Hôtel),46.253564,6.1123755,01160,0.06714900555683875,M3 
hotel,Relais Amadourien (Hôtel),44.8010041,1.6156172,46240,0.06714643555336844,Relais Amadourien 
hotel,Hôtel-Restaurant Le Saint-Jean,46.3232551,2.604762,03185,0.06714442045319712,Hôtel-Restaurant Le Saint-Jean
hotel,Tonic Hôtel,44.0829616,6.25321,04070,0.06714301608783392,Tonic Hôtel
hotel,Le Chatard (Hôtel),45.8784667,4.5592396,69173,0.06714252999553375,Le Chatard 
hotel,Hôtel de Crolles,45.2718079,5.8899023,38140,0.06714223301187006,Hôtel de Crolles
hotel,Accor Hotels,50.9379161,1.8093865,62239,0.06714171583292987,Accor Hotels
hotel,Appart'City Grenoble Meylan (Hôtel),45.2126847,5.7933033,38229,0.06713887220846503,Appart'City Grenoble Meylan 
hotel,Hôtel Alhambra,43.2808957,3.4989026,34003,0.06713659971538127,Hôtel Alhambra
hotel,Novotel (Hôtel),48.8287979,2.2630729,92040,0.06713633313447027,Novotel 
hotel,Quality Hotel,47.64484,6.8632803,90010,0.06713479387970128,Quality Hotel
hotel,Royal Baumette (Hôtel),43.4266205,6.872325,83118,0.06713170279647061,Royal Baumette 
hotel,Novotel (Hôtel),49.491554,0.1250658,76351,0.06713109003558028,Novotel 
hotel,Hôtel La Palmeraie,43.3276844,-0.3555378,64445,0.06712932732111067,Hôtel La Palmeraie
hotel,Les Ducs de Savoie (Hôtel),45.410589,6.6345475,73227,0.06712675322680837,Les Ducs de Savoie 
hotel,Les Lindars (Hôtel),46.005645,6.6941631,74014,0.06712460650472676,Les Lindars 
hotel,Ibis Hotel,47.6173445,6.8609082,90032,0.06712222976612928,Ibis Hotel
hotel,In Hôtel,48.7431999,6.1511307,54215,0.06711795989409267,In Hôtel
hotel,Hôtel du Parc,50.632575,1.6053075,62604,0.06711682920506491,Hôtel du Parc
hotel,Hôtel Restaurant Mont Champ du Feu,48.4066119,7.2594069,67027,0.06710771634274326,Hôtel Restaurant Mont Champ du Feu
hotel,Gîte de la Sainte-Baume (Hôtel),43.335885,5.7571347,83093,0.06710713370239443,Gîte de la Sainte-Baume 
hotel,Airport Club Hôtel,47.6081271,7.5024126,68042,0.06710711414639939,Airport Club Hôtel
hotel,Ibis Bourg-en-Bresse (Hôtel),46.2003603,5.2399379,01053,0.06710645578460746,Ibis Bourg-en-Bresse 
hotel,Hôtel Mercure,45.6493267,0.1579178,16015,0.0671024441143806,Hôtel Mercure
hotel,Le Portillo (Hôtel),45.2964097,6.5841506,73257,0.06710236021011681,Le Portillo 
hotel,Kyriad (Hôtel),50.5312165,1.625003,62318,0.06709785587291633,Kyriad 
hotel,Balladins (Hôtel),47.2691535,4.9998425,21390,0.06709610535912514,Balladins 
hotel,Auberge des Salles (Hôtel),43.7723594,6.2081762,83122,0.06709257743559602,Auberge des Salles 
hotel,Zenitude (Hôtel),46.360352,6.1347795,01143,0.06708398505534903,Zenitude 
hotel,Etap Hotel,48.8966585,2.4037528,93055,0.06707773330000924,Etap Hotel
hotel,Maison Pic (Hôtel),44.917601,4.885845,26362,0.06707417382988831,Maison Pic 
hotel,Appart'City (Hôtel),44.5647966,4.750753,26198,0.06706814277030668,Appart'City 
hotel,Formule 1 (Hôtel),46.246702,6.09374,01160,0.06706503001800689,Formule 1 
hotel,Les Mouflons (Hôtel),45.5106402,2.929638,63038,0.06706444880951182,Les Mouflons 
hotel,Hôtel du Centre,48.5422314,7.4917203,67300,0.06706423532879566,Hôtel du Centre
hotel,Etap Hotel,43.5868456,7.0077208,06085,0.06705712683932817,Etap Hotel
hotel,Hôtel Continental,43.4220505,6.768195,83118,0.0670562709694453,Hôtel Continental
hotel,Holiday Inn (Hôtel),49.0042935,2.5202705,95527,0.0670556738380986,Holiday Inn 
hotel,Aerel Appart Hôtel,43.6315206,1.3801026,31069,0.0670546244612234,Aerel Appart Hôtel
hotel,Holiday Inn Express (Hôtel),49.0088308,2.5476648,95527,0.06704988385524027,Holiday Inn Express 
hotel,Golden Tulip (Hôtel),48.9979075,2.517047,95527,0.06704965299909502,Golden Tulip 
hotel,AccorHotels,47.8526663,3.5437347,89013,0.0670440767137223,AccorHotels
hotel,Hôtel Kyriad,47.064844,2.368453,18033,0.0670406030042207,Hôtel Kyriad
hotel,Formule 1 (Hôtel),48.829483,2.681113,77121,0.06704047601078506,Formule 1 
hotel,La Bérangère (Hôtel),45.015669,6.1283995,38253,0.06704005142690136,La Bérangère 
hotel,B&B Hôtel Paris Italie Porte de Choisy,48.8169192,2.3664906,94041,0.06703985368334886,B&B Hôtel Paris Italie Porte de Choisy
hotel,Formule 1 (Hôtel),49.4102552,2.1118952,60057,0.06703831708305372,Formule 1 
hotel,Kyriad (Hôtel),43.426179,5.3859565,13015,0.06703724779031212,Kyriad 
hotel,The Originals Evreux Nord Acadine (Hôtel),49.1381072,0.9052923,27428,0.06703663223766139,The Originals Evreux Nord Acadine 
hotel,Novotel (Hôtel),48.8561209,2.4155378,93006,0.06703571956034782,Novotel 
hotel,Mercure (Hôtel),44.8896835,-0.5632315,33063,0.067026440432913,Mercure 
hotel,Le Mont Barral (Hôtel),44.7384436,5.5547577,26086,0.06702492459227596,Le Mont Barral 
hotel,Kyriad Prestige (Hôtel),49.286712,-0.1081834,14225,0.06702238591979708,Kyriad Prestige 
hotel,Au Moyne de Saire (Hôtel),49.6200477,-1.2597627,50433,0.06702120783793103,Au Moyne de Saire 
hotel,La Batida de Coco (Hôtel),45.0150351,4.8700007,26250,0.06701857145273199,La Batida de Coco 
hotel,Brit Hotel,48.092319,7.4335515,68038,0.06701633387007254,Brit Hotel
hotel,Hôtel : Le Dracy,46.7986925,4.782514,71182,0.06701612401588102,Hôtel : Le Dracy
hotel,Adagio Access (Hôtel),47.3860454,0.6987037,37261,0.06701538449314584,Adagio Access 
hotel,Hôtel Marjolaine,45.5797234,0.0437787,16287,0.06701227910494,Hôtel Marjolaine
hotel,Hôtel Saint-Romain,45.939068,4.714633,69009,0.06701151261753528,Hôtel Saint-Romain
hotel,La Lauza (Hôtel),45.1864855,6.480592,73307,0.0670075993419113,La Lauza 
hotel,Hôtel de l'Ile,43.9569755,4.8034065,84007,0.06700366294933888,Hôtel de l'Ile
hotel,Hôtel Kyriad,45.726184,4.9240465,69029,0.06699945567025345,Hôtel Kyriad
hotel,Best Western (Hôtel),43.2972758,-0.3669424,64445,0.06699695513090972,Best Western 
hotel,Accor|Etap Hotel,43.9774703,4.8748872,84092,0.06699660354590033,Accor|Etap Hotel
hotel,Golf hotel de Saint-Samson,48.8069255,-3.5198855,22198,0.06699403927207205,Golf hotel de Saint-Samson
hotel,Hôtel du Tilleul,44.8193975,5.9462607,38128,0.06699195215134603,Hôtel du Tilleul
hotel,Hôtel Renaissance,44.863668,-0.5514517,33063,0.06699185331985921,Hôtel Renaissance
hotel,Entreprises val de france (Hôtel),48.9782829,2.3722123,95585,0.06699167578183476,Entreprises val de france 
hotel,Hôtel Castel De Vergio,42.2867662,8.8925786,2B007,0.06698763647843303,Hôtel Castel De Vergio
hotel,Hôtel de la Plage,50.9625615,1.835255,62193,0.06698637919598929,Hôtel de la Plage
hotel,Groupe Joa (Hôtel),46.6851561,5.5653143,39300,0.0669841213056725,Groupe Joa 
hotel,Hôtel ibis,43.167704,2.9868825,11262,0.06698213714955344,Hôtel ibis
hotel,Best Western (Hôtel),50.6153831,3.0166637,59360,0.06698140131050413,Best Western 
hotel,La Zoologie (Hôtel),44.828355,-0.5626534,33063,0.06697827157442537,La Zoologie 
hotel,Hôtel Le Panorama,45.5722085,2.8075285,63236,0.06697490171418162,Hôtel Le Panorama
hotel,B&B (Hôtel),48.997786,2.514641,95527,0.06697263217199353,B&B 
hotel,Tivoli (Hôtel),47.5860037,7.5832086,68149,0.06697017067829618,Tivoli 
hotel,Résidence d'Alix (Hôtel),44.8258299,1.5961009,46240,0.06696381494436296,Résidence d'Alix 
hotel,Le clos Joli (Hôtel),48.5473156,-0.4241799,61483,0.06696077210606773,Le clos Joli 
hotel,Hôtel Astoria,48.7230085,2.2861792,91377,0.06695897189594788,Hôtel Astoria
hotel,Hôtel Les Pyrénées,43.2898468,-0.2716956,64439,0.06695880394054562,Hôtel Les Pyrénées
hotel,Hôtel Montmorency,43.2074753,2.3675331,11069,0.06695716417868715,Hôtel Montmorency
hotel,La Peupleraie (Hôtel),50.352288,1.7396115,80580,0.06695694533177143,La Peupleraie 
hotel,Kiriad (Hôtel),44.4671409,1.4290355,46042,0.0669529867638267,Kiriad 
hotel,Luccotel (Hôtel),47.1293182,0.9868289,37132,0.06695164465592199,Luccotel 
hotel,Hexagone (Hôtel),49.0403492,3.3883434,02168,0.06694739357291087,Hexagone 
hotel,Domaine d'En Fargou (Hôtel),43.7587236,1.7043587,81271,0.06694397135597062,Domaine d'En Fargou 
hotel,Radisson Blu (Hôtel),48.836243,2.2527902,92012,0.06694222673118859,Radisson Blu 
hotel,Hôtel de France,43.082485,0.950767,31315,0.06694002178242922,Hôtel de France
hotel,Eurotel (Hôtel),43.5754236,3.9370134,34198,0.06693965854741758,Eurotel 
hotel,AccorHotels,47.327177,1.7625659,41194,0.06693854880645783,AccorHotels
hotel,l'Océan (Hôtel),47.8157668,-4.3744045,29158,0.06693603983404398,l'Océan 
hotel,Atlantic Thalasso (Hôtel),46.7937422,-2.0853695,85234,0.066935881736774,Atlantic Thalasso 
hotel,Novotel (Hôtel),48.5087038,-2.7622133,22278,0.06693414761480278,Novotel 
hotel,La Pulka Galibier (Hôtel),45.1488583,6.4201744,73306,0.06692850872534495,La Pulka Galibier 
hotel,Grand Hotel Bellevue,50.6366709,3.0626385,59350,0.06692516571875037,Grand Hotel Bellevue
hotel,Brithotel,48.6532833,-2.8277449,22325,0.06692470325624793,Brithotel
hotel,Aurore Evrostel (Hôtel),49.0166796,1.1700866,27229,0.06692326259908188,Aurore Evrostel 
hotel,Hôtel F1,48.5522205,2.6708985,77394,0.0669228570634733,Hôtel F1
hotel,Plein Ciel (Hôtel),44.2735027,2.4277723,12056,0.06692161925994347,Plein Ciel 
hotel,Hôtel du Bois,45.8949073,6.8038654,74143,0.06691988500653918,Hôtel du Bois
hotel,B&B (Hôtel),50.6277547,3.0820003,59350,0.06691883069311062,B&B 
hotel,Hôtel Mercure,44.8391268,-0.5866178,33063,0.06691849874433949,Hôtel Mercure
hotel,AC Hôtel Marriott,43.693898,7.2531555,06088,0.06691757598699523,AC Hôtel Marriott
hotel,Résidence Porette (Hôtel),42.3013005,9.1552607,2B096,0.06691271509365508,Résidence Porette 
hotel,Le Beryl (Hôtel),48.5565479,-0.4160202,61483,0.06691202714527618,Le Beryl 
hotel,Les Tuileries (Hôtel),49.0316687,6.1100831,57212,0.06690832527489551,Les Tuileries 
hotel,Résidence étudiante Studéa Montpellier Millénaire (Hôtel),43.6032132,3.912773,34172,0.06690799545508017,Résidence étudiante Studéa Montpellier Millénaire 
hotel,Hôtel Mercure,43.9327028,2.1459983,81004,0.06690685012418492,Hôtel Mercure
hotel,Adagio (Hôtel),46.5862326,0.3388351,86194,0.06690658875116393,Adagio 
hotel,Chapelle des Jésuites (Hôtel),46.582937,0.339722,86194,0.06690433809805875,Chapelle des Jésuites 
hotel,Hôtel Escale Oceania Nantes Aéroport,47.1588849,-1.5968608,44020,0.06690354190940226,Hôtel Escale Oceania Nantes Aéroport
hotel,Adonis La Baule (Hôtel),47.2869502,-2.4040849,44055,0.06690237489420421,Adonis La Baule 
hotel,Maison du sacre coeur centre spirituel (Hôtel),46.4522796,4.1220292,71342,0.0668967897599073,Maison du sacre coeur centre spirituel 
hotel,Lagrange (Hôtel),43.610577,3.9177447,34172,0.06689598148855605,Lagrange 
hotel,Hôtel Diane,49.242205,6.136444,57019,0.0668946498847521,Hôtel Diane
hotel,Park & Suites (Hôtel),43.4925008,5.3514121,13001,0.06689269013334279,Park & Suites 
hotel,Ibis Budget (Hôtel),47.498524,6.8162972,25388,0.06688889917522263,Ibis Budget 
hotel,La Bastide des Moines (Hôtel),43.609642,6.4822675,83082,0.06688563546490033,La Bastide des Moines 
hotel,Hôtel Ibis Paris Porte d'Orléans,48.8175016,2.3296101,92049,0.0668788719934477,Hôtel Ibis Paris Porte d'Orléans
hotel,Green Hotel,48.8519211,2.478318,94033,0.06687795241426936,Green Hotel
hotel,Ibis Styles (Hôtel),45.1451187,1.4748881,19031,0.06687735275720691,Ibis Styles 
hotel,Mercure (Hôtel),49.4101543,2.1114185,60057,0.06687559226803393,Mercure 
hotel,ibis (Hôtel),48.8920186,2.3847924,75056,0.066866561331068,ibis 
hotel,La Ferme de Vaux (Hôtel),49.2634957,2.4894361,60175,0.06686646197565313,La Ferme de Vaux 
hotel,Hôtel Village Montana,45.4718075,6.9063225,73296,0.06686607842516229,Hôtel Village Montana
hotel,Popinns (Hôtel),43.6422025,3.8442886,34172,0.0668633315488506,Popinns 
hotel,Hôtel Marquis,48.8697395,2.3210582,75056,0.06686201508509795,Hôtel Marquis
hotel,Hôtel Mercure,46.15343,-1.149507,17300,0.0668618060833442,Hôtel Mercure
hotel,Vacanciel (Hôtel),45.4133803,6.6578012,73227,0.06686091515842989,Vacanciel 
hotel,Novotel (Hôtel),48.7807107,2.4474005,94028,0.06686026523366366,Novotel 
hotel,Etap Hotel,45.7822915,4.8902206,69266,0.06685374005250143,Etap Hotel
hotel,Le Saint-Georges (Hôtel),46.78237,4.8443028,71076,0.06685271245404542,Le Saint-Georges 
hotel,YOOMA (Hôtel),48.8506926,2.2852932,75056,0.0668521149742844,YOOMA 
hotel,Hôtel REstaurant Le Castel Fleuri,43.2982914,6.1868756,83033,0.06684863342070982,Hôtel REstaurant Le Castel Fleuri
hotel,Leprince Hôtel - Spa,48.0036434,0.1951812,72181,0.06684432859984332,Leprince Hôtel - Spa
hotel,Hôtel Pullman,48.8950147,2.2389738,92026,0.06684161070810356,Hôtel Pullman
hotel,Aletti Palace (Hôtel),46.123238,3.4186925,03310,0.06684156483133744,Aletti Palace 
hotel,Etap Hotel,43.943438,4.7987437,84007,0.06684138360681835,Etap Hotel
hotel,Grand Hôtel Barrière,48.9681459,2.3056113,95210,0.06684102037514728,Grand Hôtel Barrière
hotel,Sejours & Affaires Résidence Hôteliere,43.8288005,5.80109,04112,0.06683719728528975,Sejours & Affaires Résidence Hôteliere
hotel,Accor (Hôtel),48.0755752,7.3535735,68066,0.06683497817127305,Accor 
hotel,Balladins (Hôtel),44.36163,2.0323392,12300,0.06683459170233412,Balladins 
hotel,Fahrenheit Seven (Hôtel),45.2952657,6.5838698,73257,0.06682890406470476,Fahrenheit Seven 
hotel,Foyer Etudiants (Hôtel),48.0616053,-0.7584547,53130,0.06682717021094753,Foyer Etudiants 
hotel,Vichy Spa Les Célestins (Hôtel),46.1258538,3.4170281,03310,0.06682118351727562,Vichy Spa Les Célestins 
hotel,Hôtel Ibis Auxerre sud,47.7910984,3.6700646,89438,0.06681944235839303,Hôtel Ibis Auxerre sud
hotel,Hôtel les Sources,45.4521837,6.5716348,73057,0.06681869046216596,Hôtel les Sources
hotel,Formule 1 (Hôtel),48.8557656,2.416313,93006,0.06681571368665899,Formule 1 
hotel,Antarès (Hôtel),49.4096935,0.252284,14536,0.06681498985402994,Antarès 
hotel,BOMA (Hôtel),48.583182,7.7417656,67482,0.06681416281664572,BOMA 
hotel,Hôtel Les Chênes,44.2153367,5.9241679,04209,0.0668127978024605,Hôtel Les Chênes
hotel,Mercure Centre Gare (Hôtel),48.1046815,-1.6781255,35238,0.06681187215438335,Mercure Centre Gare 
hotel,UCPA Grand Serre Chevalier (Hôtel),44.9437753,6.5587662,05161,0.06680846856423013,UCPA Grand Serre Chevalier 
hotel,Le Parc **** (Hôtel),48.2322738,7.3652235,68296,0.0668080467162719,Le Parc **** 
hotel,Hôtel ibis Arras Centre Les Places,50.290791,2.7793195,62041,0.06680704389243503,Hôtel ibis Arras Centre Les Places
hotel,Etap Hotel,43.6132719,6.9666138,06084,0.06680572457406322,Etap Hotel
hotel,Kyriad (Hôtel),49.146685,-0.34022,14341,0.06680533476200662,Kyriad 
hotel,Ibis Budget (Hôtel),45.713183,5.0716218,69299,0.0667997485949152,Ibis Budget 
hotel,Première Classe (Hôtel),49.4969262,0.1515212,76351,0.0667963695221968,Première Classe 
hotel,Hôtel des Trois Hiboux,49.1297698,2.571084,60494,0.06679156192491525,Hôtel des Trois Hiboux
hotel,Breiz Armor (Hôtel),47.940512,-4.402638,29225,0.06678256553929762,Breiz Armor 
hotel,Adagio Access (Hôtel),48.8497802,2.3724158,75056,0.06678245486731771,Adagio Access 
